{
  "version": 0.6,
  "generator": "Overpass API 0.7.62.11 87bfad18",
  "osm3s": {
    "timestamp_osm_base": "2026-06-05T08:10:45Z",
    "timestamp_areas_base": "2026-06-05T03:48:35Z",
    "copyright": "The data included in this document is from www.openstreetmap.org. The data is made available under ODbL."
  },
  "elements": [
    {
      "type": "node",
      "id": 847160012,
      "lat": 45.7624243,
      "lon": 6.9876613,
      "tags": {
        "leisure": "swimming_pool"
      }
    },
    {
      "type": "node",
      "id": 893388008,
      "lat": 45.6534607,
      "lon": 7.8536667,
      "tags": {
        "name": "Palestra di Roccia",
        "sport": "climbing",
        "tourism": "attraction",
        "wikidata": "Q70334736"
      }
    },
    {
      "type": "node",
      "id": 925963035,
      "lat": 45.6339888,
      "lon": 7.7353175,
      "tags": {
        "name": "Il Paretone - sommet",
        "natural": "peak",
        "sport": "climbing"
      }
    },
    {
      "type": "node",
      "id": 1263619441,
      "lat": 45.8754179,
      "lon": 7.6239486,
      "tags": {
        "leisure": "swimming_pool",
        "name": "Piscina Comunale Coperta di Valtournenche",
        "sport": "swimming"
      }
    },
    {
      "type": "node",
      "id": 1291376546,
      "lat": 45.7876041,
      "lon": 7.7807031,
      "tags": {
        "sport": "climbing"
      }
    },
    {
      "type": "node",
      "id": 1295389207,
      "lat": 45.6355688,
      "lon": 7.7300436,
      "tags": {
        "leisure": "sports_centre",
        "name": "Palestra di Roccia Gruviera",
        "sport": "climbing"
      }
    },
    {
      "type": "node",
      "id": 1295440751,
      "lat": 45.6485885,
      "lon": 7.0634453,
      "tags": {
        "name": "Palestra di Roccia Miollet",
        "sport": "climbing"
      }
    },
    {
      "type": "node",
      "id": 1295440812,
      "lat": 45.6478872,
      "lon": 7.0646539,
      "tags": {
        "name": "Palestra di Roccia Mecca",
        "sport": "climbing"
      }
    },
    {
      "type": "node",
      "id": 1295440992,
      "lat": 45.6494022,
      "lon": 7.0659581,
      "tags": {
        "name": "Palestra di Roccia Pachou",
        "sport": "climbing"
      }
    },
    {
      "type": "node",
      "id": 1295768735,
      "lat": 45.7488191,
      "lon": 7.0287289,
      "tags": {
        "climbing": "crag",
        "name": "Palestra di Roccia Hans Marguerettaz",
        "sport": "climbing"
      }
    },
    {
      "type": "node",
      "id": 1295821530,
      "lat": 45.633434,
      "lon": 7.7352538,
      "tags": {
        "name": "Palestra di Roccia Il Paretone",
        "sport": "climbing"
      }
    },
    {
      "type": "node",
      "id": 1295844603,
      "lat": 45.5320672,
      "lon": 7.1998818,
      "tags": {
        "name": "Palestra di Roccia Belvedere di Fosse",
        "sport": "climbing"
      }
    },
    {
      "type": "node",
      "id": 1342584414,
      "lat": 45.6166474,
      "lon": 7.5535443,
      "tags": {
        "name": "Parete di Dondena",
        "sport": "climbing"
      }
    },
    {
      "type": "node",
      "id": 1374433276,
      "lat": 45.6810642,
      "lon": 7.6057491,
      "tags": {
        "sport": "climbing"
      }
    },
    {
      "type": "node",
      "id": 1587154486,
      "lat": 45.7992735,
      "lon": 6.9639975,
      "tags": {
        "sport": "climbing"
      }
    },
    {
      "type": "node",
      "id": 1727018026,
      "lat": 45.8019593,
      "lon": 7.3143724,
      "tags": {
        "sport": "climbing"
      }
    },
    {
      "type": "node",
      "id": 1732694659,
      "lat": 45.6653647,
      "lon": 7.6907343,
      "tags": {
        "leisure": "swimming_pool",
        "sport": "swimming"
      }
    },
    {
      "type": "node",
      "id": 1767274850,
      "lat": 45.5982312,
      "lon": 7.79861,
      "tags": {
        "leisure": "sports_centre",
        "sport": "climbing"
      }
    },
    {
      "type": "node",
      "id": 1791396296,
      "lat": 45.7034394,
      "lon": 7.1520203,
      "tags": {
        "climbing": "crag",
        "description": "Leverogne Settore Vampirella",
        "name": "Palestra Leverogne Settore Vampirella",
        "sport": "climbing"
      }
    },
    {
      "type": "node",
      "id": 1791396330,
      "lat": 45.7036836,
      "lon": 7.1532818,
      "tags": {
        "climbing": "crag",
        "description": "Leverogne Settore Metallica",
        "name": "Palestra Leverogne Settore Mettalica",
        "sport": "climbing"
      }
    },
    {
      "type": "node",
      "id": 1791471762,
      "lat": 45.6272727,
      "lon": 7.0585819,
      "tags": {
        "description": "Nid des Hirondelles",
        "sport": "climbing"
      }
    },
    {
      "type": "node",
      "id": 1791476603,
      "lat": 45.71111,
      "lon": 7.2380993,
      "tags": {
        "climbing:quality": "solid",
        "climbing:rock": "granite",
        "climbing:trad": "yes",
        "leisure": "sports_centre",
        "name": "Priorato",
        "outdoor": "yes",
        "sport": "climbing"
      }
    },
    {
      "type": "node",
      "id": 1791513892,
      "lat": 45.743774,
      "lon": 7.4165317,
      "tags": {
        "description": "Settore Alpini",
        "sport": "climbing"
      }
    },
    {
      "type": "node",
      "id": 1791524199,
      "lat": 45.7760725,
      "lon": 7.6973164,
      "tags": {
        "name": "Extrepieraz",
        "sport": "climbing"
      }
    },
    {
      "type": "node",
      "id": 1830001475,
      "lat": 45.8098607,
      "lon": 7.6789574,
      "tags": {
        "sport": "climbing"
      }
    },
    {
      "type": "node",
      "id": 1830001482,
      "lat": 45.809964,
      "lon": 7.6787131,
      "tags": {
        "sport": "climbing"
      }
    },
    {
      "type": "node",
      "id": 1830001485,
      "lat": 45.8100947,
      "lon": 7.6787403,
      "tags": {
        "sport": "climbing"
      }
    },
    {
      "type": "node",
      "id": 1843817820,
      "lat": 45.7166256,
      "lon": 7.7587595,
      "tags": {
        "sport": "climbing"
      }
    },
    {
      "type": "node",
      "id": 1851508075,
      "lat": 45.8103719,
      "lon": 7.6764138,
      "tags": {
        "leisure": "horse_riding",
        "sport": "equestrian"
      }
    },
    {
      "type": "node",
      "id": 1886514715,
      "lat": 45.6751517,
      "lon": 6.9853213,
      "tags": {
        "sport": "climbing"
      }
    },
    {
      "type": "node",
      "id": 1886517019,
      "lat": 45.6731026,
      "lon": 6.9844831,
      "tags": {
        "sport": "climbing"
      }
    },
    {
      "type": "node",
      "id": 2469477422,
      "lat": 45.8853493,
      "lon": 7.0597983,
      "tags": {
        "alt_name": "Placche dell'Elena",
        "name": "Placche di Prè de Bar",
        "sport": "climbing"
      }
    },
    {
      "type": "node",
      "id": 2469953253,
      "lat": 45.8648309,
      "lon": 7.0182868,
      "tags": {
        "name": "Memoire du Glacier",
        "sport": "climbing"
      }
    },
    {
      "type": "node",
      "id": 2622081354,
      "lat": 45.5894398,
      "lon": 7.3963192,
      "tags": {
        "climbing:ice": "yes",
        "name": "Cogne - Valeille",
        "sport": "climbing"
      }
    },
    {
      "type": "node",
      "id": 2940263649,
      "lat": 45.86167,
      "lon": 6.95944,
      "tags": {
        "name": "Géant Rochefort",
        "source": "data.gouv.fr:Le ministère des droits des femmes, de la ville, de la jeunesse et des sports - 2014",
        "sport": "climbing"
      }
    },
    {
      "type": "node",
      "id": 2954141830,
      "lat": 45.7759377,
      "lon": 7.2842333,
      "tags": {
        "alt_name": "Palestra di roccia Joe Mazza",
        "climbing": "area",
        "climbing:grade:french:max": "7a",
        "climbing:grade:french:min": "4",
        "climbing:sport": "14",
        "name": "Palestra di roccia Montquitay",
        "sport": "climbing",
        "start_date": "1980"
      }
    },
    {
      "type": "node",
      "id": 3037684554,
      "lat": 45.5229917,
      "lon": 7.203524,
      "tags": {
        "source": "Bing",
        "sport": "climbing"
      }
    },
    {
      "type": "node",
      "id": 3037684562,
      "lat": 45.5250554,
      "lon": 7.2003414,
      "tags": {
        "source": "Bing",
        "sport": "climbing"
      }
    },
    {
      "type": "node",
      "id": 3165214101,
      "lat": 45.6708794,
      "lon": 7.6834471,
      "tags": {
        "addr:city": "Verres",
        "addr:country": "IT",
        "addr:postcode": "11029",
        "addr:street": "Loc. Chopine",
        "contact:website": "http://www.topopazzoclimbinghouse.com/",
        "leisure": "sports_centre",
        "name": "Topopazzo Climbing House",
        "sport": "climbing"
      }
    },
    {
      "type": "node",
      "id": 3318873232,
      "lat": 45.7694764,
      "lon": 7.5809028,
      "tags": {
        "climbing:grade:french:max": "6a+",
        "climbing:grade:french:min": "4",
        "climbing:sport": "8",
        "leisure": "sports_centre",
        "name:fr": "Le Paradis des enfants",
        "name:it": "Palestra di Roccia il Paradiso dei Bimbi",
        "sport": "climbing"
      }
    },
    {
      "type": "node",
      "id": 3467559931,
      "lat": 45.6888388,
      "lon": 7.5145146,
      "tags": {
        "leisure": "climbing",
        "name": "Sasso erratico chiodato (non controllato)",
        "natural": "rock",
        "sport": "climbing"
      }
    },
    {
      "type": "node",
      "id": 3671946584,
      "lat": 45.8400173,
      "lon": 7.7314182,
      "tags": {
        "addr:housenumber": "1",
        "addr:postcode": "11020",
        "addr:street": "Piazzale Ramey",
        "leisure": "swimming_pool",
        "name": "Monterosa Terme",
        "phone": "+340125308000",
        "website": "https://www.laviadelleterme.it/"
      }
    },
    {
      "type": "node",
      "id": 3895339756,
      "lat": 45.8319,
      "lon": 7.7257714,
      "tags": {
        "amenity": "bicycle_rental",
        "bicycle_rental": "shop",
        "name": "Rentaplay",
        "shop": "rental"
      }
    },
    {
      "type": "node",
      "id": 4288491763,
      "lat": 45.8315006,
      "lon": 7.7255596,
      "tags": {
        "amenity": "bicycle_rental",
        "name": "Rent Play"
      }
    },
    {
      "type": "node",
      "id": 4508599147,
      "lat": 45.7265574,
      "lon": 7.662258,
      "tags": {
        "climbing:grade:french": "6a",
        "climbing:length": "240",
        "climbing:multipitch": "yes",
        "climbing:orientation": "NE",
        "ele": "350",
        "name": "Via Forza Vecchio Cuore Granata",
        "sport": "climbing",
        "website": "https://www.vielunghevalledaosta.com/montjovet-via-forza-vecchio-cuore-granata/"
      }
    },
    {
      "type": "node",
      "id": 4942386023,
      "lat": 45.8311971,
      "lon": 6.9860779,
      "tags": {
        "addr:street": "Plampincieux",
        "amenity": "bicycle_rental",
        "name": "Club Des Sports Val Ferret",
        "website": "https://www.courmayeurmontblanc.it/en/services/rentals/club-des-sports-courmayeur-val-ferret/"
      }
    },
    {
      "type": "node",
      "id": 6695502537,
      "lat": 45.7782514,
      "lon": 7.8186013,
      "tags": {
        "leisure": "sports_centre",
        "name": "Falesia Tschachtelaz",
        "note": "1) Le Felci 5a\n2) Sunny 5b\n3) Via Giulia 5b\n4) I falsari 7b\n5) L'alchimista 7c\n6) Butterfly 6c\n7) Albe chiara 7a\n8) La ballade des pendus 6c\n9) Madame Bovary 6b\n10) La fonte perduta 7b\n11) Spettri nelle tenebre 7b/c\n12) Amanti senza nome 7a\n13) La formula",
        "source": "https://www.guidemonterosa.info/page.asp?ID=9",
        "sport": "climbing"
      }
    },
    {
      "type": "node",
      "id": 6695502538,
      "lat": 45.778237,
      "lon": 7.8203144,
      "tags": {
        "leisure": "sports_centre",
        "name": "Falesia Il Cuore",
        "note": "1) Tom e Jerry 6b (chiodi poco sicuri)\n2) Troll 6a  (chiodi poco sicuri)\n3) li riscatto (4 tiri) max 6a+\n4) Mulan 6a\n5) Dumbo 5a\n6) Pikaciu 4+\n7) Baby 4\n8) Baby 4/5\n9) Sara 4+\n10) Spirit 5c",
        "source": "https://www.guidemonterosa.info/page.asp?ID=9",
        "sport": "climbing"
      }
    },
    {
      "type": "node",
      "id": 6697096100,
      "lat": 45.7812179,
      "lon": 7.8212144,
      "tags": {
        "name": "Boulder climbing",
        "natural": "rock",
        "sport": "climbing"
      }
    },
    {
      "type": "node",
      "id": 6697116671,
      "lat": 45.7305369,
      "lon": 7.8710763,
      "tags": {
        "fixme": "estimated position from map and satellite imagery",
        "leisure": "sports_centre",
        "name": "Zappegly - Falesia Arrampicata",
        "sport": "climbing"
      }
    },
    {
      "type": "node",
      "id": 6777602180,
      "lat": 45.6198899,
      "lon": 7.7506054,
      "tags": {
        "climbing": "route_bottom",
        "climbing:multipitch": "yes",
        "name": "Via Pilier del Forte Destro",
        "sport": "climbing"
      }
    },
    {
      "type": "node",
      "id": 6795537759,
      "lat": 45.6357535,
      "lon": 7.7523073,
      "tags": {
        "name": "Via Pinna",
        "sport": "climbing"
      }
    },
    {
      "type": "node",
      "id": 7742125444,
      "lat": 45.6110224,
      "lon": 7.354053,
      "tags": {
        "indoor": "yes",
        "leisure": "sports_centre",
        "name": "Palestra arrampicata indoor",
        "sport": "climbing"
      }
    },
    {
      "type": "node",
      "id": 7840225117,
      "lat": 45.8953853,
      "lon": 7.6215832,
      "tags": {
        "fee": "no",
        "leisure": "sports_centre",
        "name": "Singlin - Settore 1",
        "sport": "climbing"
      }
    },
    {
      "type": "node",
      "id": 7858338331,
      "lat": 45.8995792,
      "lon": 7.6161576,
      "tags": {
        "leisure": "sports_centre",
        "name": "Singlin - settore 6",
        "sport": "climbing"
      }
    },
    {
      "type": "node",
      "id": 7860986566,
      "lat": 45.8944978,
      "lon": 7.619893,
      "tags": {
        "leisure": "sports_centre",
        "name": "Singlin - settore 7",
        "sport": "climbing"
      }
    },
    {
      "type": "node",
      "id": 7862425305,
      "lat": 45.6752891,
      "lon": 7.0760375,
      "tags": {
        "climbing:bolted": "yes",
        "climbing:grade:french:max": "5c",
        "climbing:grade:french:min": "5a",
        "climbing:length": "250m",
        "climbing:multipitch": "1",
        "climbing:sport": "yes",
        "name": "Mario e Cecilia",
        "sport": "climbing"
      }
    },
    {
      "type": "node",
      "id": 8149782094,
      "lat": 45.6197227,
      "lon": 7.7532724,
      "tags": {
        "climbing": "route_bottom",
        "climbing:multipitch": "yes",
        "climbing:toprope": "no",
        "name": "Via Eravamo 5 Amici Albard",
        "sport": "climbing"
      }
    },
    {
      "type": "node",
      "id": 8149802695,
      "lat": 45.6198476,
      "lon": 7.7498567,
      "tags": {
        "climbing": "route_bottom",
        "climbing:multipitch": "yes",
        "name": "Via Piler del Forte Sinistro",
        "sport": "climbing"
      }
    },
    {
      "type": "node",
      "id": 8149802715,
      "lat": 45.6193139,
      "lon": 7.7481361,
      "tags": {
        "climbing": "route_bottom",
        "climbing:multipitch": "yes",
        "name": "Via Bloody Mary",
        "sport": "climbing"
      }
    },
    {
      "type": "node",
      "id": 8149808076,
      "lat": 45.6197473,
      "lon": 7.7493578,
      "tags": {
        "climbing": "route_bottom",
        "climbing:multipitch": "yes",
        "name": "Via Gary e Cary",
        "sport": "climbing"
      }
    },
    {
      "type": "node",
      "id": 8559618228,
      "lat": 45.8039371,
      "lon": 6.9742098,
      "tags": {
        "climbing": "crag",
        "name": "Pierre Taillee",
        "sport": "climbing"
      }
    },
    {
      "type": "node",
      "id": 8567669680,
      "lat": 45.8643134,
      "lon": 7.3386237,
      "tags": {
        "sport": "climbing"
      }
    },
    {
      "type": "node",
      "id": 8960052331,
      "lat": 45.528723,
      "lon": 7.1966645,
      "tags": {
        "natural": "cliff",
        "sport": "climbing"
      }
    },
    {
      "type": "node",
      "id": 9014410295,
      "lat": 45.8548009,
      "lon": 7.3028702,
      "tags": {
        "leisure": "horse_riding",
        "name": "Maneggio L'Envers"
      }
    },
    {
      "type": "node",
      "id": 9174411045,
      "lat": 45.7042063,
      "lon": 7.2115332,
      "tags": {
        "leisure": "sports_centre",
        "name": "falesia Villeneuve",
        "sport": "climbing"
      }
    },
    {
      "type": "node",
      "id": 9174602775,
      "lat": 45.7463152,
      "lon": 7.4433932,
      "tags": {
        "leisure": "sports_centre",
        "name": "Palestra di Vollein",
        "sport": "climbing"
      }
    },
    {
      "type": "node",
      "id": 9174602776,
      "lat": 45.7578257,
      "lon": 7.4377234,
      "tags": {
        "leisure": "sports_centre",
        "name": "Palestra d arrampicata di Trois-Villes.",
        "sport": "climbing"
      }
    },
    {
      "type": "node",
      "id": 9174602777,
      "lat": 45.7437407,
      "lon": 7.4165579,
      "tags": {
        "leisure": "sports_centre",
        "sport": "climbing"
      }
    },
    {
      "type": "node",
      "id": 9255585668,
      "lat": 45.702444,
      "lon": 7.2174714,
      "tags": {
        "leisure": "sports_centre",
        "name": "Rafting Aventure",
        "name:fr": "Rafting Aventure",
        "sport": "canoe"
      }
    },
    {
      "type": "node",
      "id": 9579037630,
      "lat": 45.6199339,
      "lon": 7.7507339,
      "tags": {
        "leisure": "sports_centre",
        "name": "Via i 2 Marimba",
        "sport": "climbing"
      }
    },
    {
      "type": "node",
      "id": 9900139818,
      "lat": 45.7905653,
      "lon": 6.9739225,
      "tags": {
        "amenity": "bicycle_rental",
        "name": "Courmaebike",
        "operator": "Courmaebike.it"
      }
    },
    {
      "type": "node",
      "id": 9900310752,
      "lat": 45.711947,
      "lon": 7.6568617,
      "tags": {
        "climbing": "crag",
        "climbing:orientation": "E",
        "climbing:sport": "yes",
        "name": "Gettaz",
        "sport": "climbing"
      }
    },
    {
      "type": "node",
      "id": 9945137545,
      "lat": 45.6770999,
      "lon": 7.0795323,
      "tags": {
        "name": "Planaval - La fête du village",
        "sport": "climbing"
      }
    },
    {
      "type": "node",
      "id": 9945145337,
      "lat": 45.6280052,
      "lon": 7.0598167,
      "tags": {
        "name": "Nid des Hirondelles – La Formica",
        "sport": "climbing"
      }
    },
    {
      "type": "node",
      "id": 9950791682,
      "lat": 45.526951,
      "lon": 7.1933741,
      "tags": {
        "name": "Di fronte al Paradiso - David & Luca",
        "sport": "climbing"
      }
    },
    {
      "type": "node",
      "id": 9950797595,
      "lat": 45.5271742,
      "lon": 7.1924778,
      "tags": {
        "name": "Di fronte al Paradiso",
        "sport": "climbing"
      }
    },
    {
      "type": "node",
      "id": 9950804250,
      "lat": 45.6425385,
      "lon": 7.0655974,
      "tags": {
        "climbing": "crag",
        "name": "Falesia Le Gare",
        "sport": "climbing"
      }
    },
    {
      "type": "node",
      "id": 9953197567,
      "lat": 45.6545258,
      "lon": 7.7074698,
      "tags": {
        "name": "Mont Carogne",
        "sport": "climbing"
      }
    },
    {
      "type": "node",
      "id": 9956289913,
      "lat": 45.6124413,
      "lon": 7.6847649,
      "tags": {
        "name": "Mont Charvatton - Le Bionde e i Grigi",
        "sport": "climbing"
      }
    },
    {
      "type": "node",
      "id": 9956317754,
      "lat": 45.6124891,
      "lon": 7.6847044,
      "tags": {
        "name": "Mont Charvatton - Tommy",
        "sport": "climbing"
      }
    },
    {
      "type": "node",
      "id": 10000169452,
      "lat": 45.6344951,
      "lon": 7.0611289,
      "tags": {
        "leisure": "sports_centre",
        "name": "Croux",
        "sport": "climbing"
      }
    },
    {
      "type": "node",
      "id": 10021342150,
      "lat": 45.7464763,
      "lon": 7.4504393,
      "tags": {
        "name": "Palestra di Vollein Settore Il paraiso perduto",
        "sport": "climbing"
      }
    },
    {
      "type": "node",
      "id": 10879507392,
      "lat": 45.5286604,
      "lon": 7.1966587,
      "tags": {
        "name": "Belvedere di Fosse",
        "sport": "climbing"
      }
    },
    {
      "type": "node",
      "id": 11035643613,
      "lat": 45.8072364,
      "lon": 6.8837849,
      "tags": {
        "climbing": "route",
        "climbing:bolted": "yes",
        "climbing:grade:french": "5b",
        "climbing:grade:french:max": "5b",
        "climbing:grade:uiaa": "5+",
        "climbing:grade:uiaa:max": "5+",
        "climbing:grade:uiaa:mean": "5+",
        "climbing:grade:uiaa:min": "4",
        "climbing:multipitch": "yes",
        "climbing:rock": "granite",
        "name": "Via Cheney",
        "natural": "rock",
        "sport": "climbing"
      }
    },
    {
      "type": "node",
      "id": 11219353741,
      "lat": 45.6172924,
      "lon": 7.7444559,
      "tags": {
        "climbing": "route_bottom",
        "climbing:multipitch": "yes",
        "name": "Via Olympic Spirit",
        "sport": "climbing"
      }
    },
    {
      "type": "node",
      "id": 12017352168,
      "lat": 45.5973941,
      "lon": 7.7546206,
      "tags": {
        "leisure": "sports_centre",
        "name": "Falesia di Outrefer - Settore DX",
        "sport": "climbing"
      }
    },
    {
      "type": "node",
      "id": 12017357082,
      "lat": 45.5973903,
      "lon": 7.7565381,
      "tags": {
        "leisure": "sports_centre",
        "name": "Falesia di Outrefer Settore SX",
        "sport": "climbing"
      }
    },
    {
      "type": "node",
      "id": 12054664753,
      "lat": 45.8665669,
      "lon": 7.036159,
      "tags": {
        "climbing:grade:uiaa:max": "7+/8-",
        "climbing:grade:uiaa:min": "6",
        "height": "320",
        "name": "Avancorpo Mont Greuvetta",
        "natural": "cliff",
        "sport": "climbing"
      }
    },
    {
      "type": "node",
      "id": 12146204999,
      "lat": 45.7224702,
      "lon": 6.9422939,
      "tags": {
        "climbing": "crag",
        "name": "Falesia Bucovat",
        "sport": "climbing"
      }
    },
    {
      "type": "node",
      "id": 12146222105,
      "lat": 45.7203852,
      "lon": 6.9450201,
      "tags": {
        "climbing": "crag",
        "name": "Falesia degli Alpini",
        "sport": "climbing"
      }
    },
    {
      "type": "node",
      "id": 12146251730,
      "lat": 45.755374,
      "lon": 7.0266712,
      "tags": {
        "climbing": "crag",
        "name": "Falesia Montet",
        "sport": "climbing"
      }
    },
    {
      "type": "node",
      "id": 12146254529,
      "lat": 45.8030047,
      "lon": 6.9745788,
      "tags": {
        "climbing": "crag",
        "name": "Falesia Villar",
        "sport": "climbing"
      }
    },
    {
      "type": "node",
      "id": 12146254530,
      "lat": 45.7947772,
      "lon": 6.9580488,
      "tags": {
        "climbing": "crag",
        "name": "Pilastro Giallo",
        "sport": "climbing"
      }
    },
    {
      "type": "node",
      "id": 12194508770,
      "lat": 45.7218685,
      "lon": 7.6615615,
      "tags": {
        "climbing:grade:french:max": "7b",
        "climbing:grade:french:min": "5c",
        "climbing:height": "120",
        "climbing:multipitch": "10",
        "climbing:rock": "serpentinite",
        "climbing:trad": "yes",
        "ele": "800",
        "name": "Pilier Rhodo",
        "sport": "climbing",
        "url": "https://matteo-giglio.blogspot.com/2012/05/pilier-rhodo-nuovo-spot-trad-in-valle.html"
      }
    },
    {
      "type": "node",
      "id": 12998923891,
      "lat": 45.8932355,
      "lon": 7.0405683,
      "tags": {
        "name": "Klettern",
        "sport": "climbing"
      }
    },
    {
      "type": "node",
      "id": 13005822205,
      "lat": 45.7722762,
      "lon": 7.8291732,
      "tags": {
        "amenity": "bicycle_rental",
        "fee": "yes",
        "name": "Bergland"
      }
    },
    {
      "type": "node",
      "id": 13027432385,
      "lat": 45.7916226,
      "lon": 6.9715079,
      "tags": {
        "amenity": "bicycle_rental",
        "name": "CourmaeBike"
      }
    },
    {
      "type": "node",
      "id": 13074551961,
      "lat": 45.8876426,
      "lon": 7.0521409,
      "tags": {
        "climbing": "route",
        "name": "Parete dei Titani",
        "sport": "climbing"
      }
    },
    {
      "type": "node",
      "id": 13088758664,
      "lat": 45.7127432,
      "lon": 7.246188,
      "tags": {
        "name": "Tetto di Sarre",
        "outdoor": "yes",
        "sport": "climbing",
        "website": "https://climbingaway.fr/fr/site-escalade/tetto-di-sarre",
        "wikimedia_commons": "Category:Tetto di Sarre"
      }
    },
    {
      "type": "node",
      "id": 13091832505,
      "lat": 45.93513,
      "lon": 7.6289136,
      "tags": {
        "amenity": "bicycle_rental",
        "check_date": "2025-08-22",
        "name": "Bike School"
      }
    },
    {
      "type": "node",
      "id": 13108886388,
      "lat": 45.6224429,
      "lon": 7.7043103,
      "tags": {
        "name": "Overfive",
        "sport": "climbing"
      }
    },
    {
      "type": "node",
      "id": 13108931336,
      "lat": 45.6228031,
      "lon": 7.7033366,
      "tags": {
        "name": "Men at Work",
        "sport": "climbing"
      }
    },
    {
      "type": "node",
      "id": 13279330564,
      "lat": 45.6284646,
      "lon": 7.7457536,
      "tags": {
        "climbing": "route",
        "name": "Pilastro Nomasti",
        "sport": "climbing"
      }
    },
    {
      "type": "node",
      "id": 13381459411,
      "lat": 45.8779764,
      "lon": 7.6481903,
      "tags": {
        "climbing:ice": "yes",
        "sport": "climbing"
      }
    },
    {
      "type": "node",
      "id": 13507003654,
      "lat": 45.6189978,
      "lon": 7.7432464,
      "tags": {
        "climbing": "route_bottom",
        "climbing:multipitch": "yes",
        "natural": "cliff",
        "sport": "climbing"
      }
    },
    {
      "type": "node",
      "id": 13900003782,
      "lat": 45.730501,
      "lon": 7.6733192,
      "tags": {
        "climbing": "crag",
        "name": "Chenal",
        "sport": "climbing"
      }
    },
    {
      "type": "node",
      "id": 13902986460,
      "lat": 45.6225753,
      "lon": 7.7090598,
      "tags": {
        "climbing": "crag",
        "name": "Paretina",
        "sport": "climbing"
      }
    },
    {
      "type": "node",
      "id": 13902986461,
      "lat": 45.6228284,
      "lon": 7.7115747,
      "tags": {
        "climbing": "crag",
        "name": "Bimbo Climb",
        "sport": "climbing"
      }
    },
    {
      "type": "node",
      "id": 13902986462,
      "lat": 45.6223626,
      "lon": 7.7053059,
      "tags": {
        "climbing": "crag",
        "name": "Grotta",
        "sport": "climbing"
      }
    },
    {
      "type": "way",
      "id": 109573650,
      "bounds": {
        "minlat": 45.8120827,
        "minlon": 7.5895217,
        "maxlat": 45.8122027,
        "maxlon": 7.5896386
      },
      "nodes": [
        1253990475,
        1253990510,
        1253990603,
        1253990536,
        1253990475
      ],
      "geometry": [
        {
          "lat": 45.8121985,
          "lon": 7.5895464
        },
        {
          "lat": 45.8120956,
          "lon": 7.5895217
        },
        {
          "lat": 45.8120827,
          "lon": 7.5896017
        },
        {
          "lat": 45.8122027,
          "lon": 7.5896386
        },
        {
          "lat": 45.8121985,
          "lon": 7.5895464
        }
      ],
      "tags": {
        "leisure": "swimming_pool",
        "sport": "swimming"
      }
    },
    {
      "type": "way",
      "id": 114143723,
      "bounds": {
        "minlat": 45.7753187,
        "minlon": 7.69711,
        "maxlat": 45.7764504,
        "maxlon": 7.6974453
      },
      "nodes": [
        1293391725,
        1293392346,
        1293392940,
        1293391979,
        1293392585,
        1293393195,
        1293391917,
        1293392534,
        1293393139,
        1293392193,
        1293392783,
        1293391805,
        1293392910
      ],
      "geometry": [
        {
          "lat": 45.7753187,
          "lon": 7.6971608
        },
        {
          "lat": 45.7754415,
          "lon": 7.69711
        },
        {
          "lat": 45.7754989,
          "lon": 7.6971606
        },
        {
          "lat": 45.7756395,
          "lon": 7.6972318
        },
        {
          "lat": 45.7756958,
          "lon": 7.697227
        },
        {
          "lat": 45.7757868,
          "lon": 7.6972531
        },
        {
          "lat": 45.7758878,
          "lon": 7.6972721
        },
        {
          "lat": 45.7760036,
          "lon": 7.6972721
        },
        {
          "lat": 45.7761029,
          "lon": 7.6972674
        },
        {
          "lat": 45.7761689,
          "lon": 7.6973459
        },
        {
          "lat": 45.7762658,
          "lon": 7.6974275
        },
        {
          "lat": 45.776361,
          "lon": 7.6974453
        },
        {
          "lat": 45.7764504,
          "lon": 7.6973931
        }
      ],
      "tags": {
        "name": "Palestra di Arrampicata Extrepieraz",
        "natural": "cliff",
        "sport": "climbing"
      }
    },
    {
      "type": "way",
      "id": 114332398,
      "bounds": {
        "minlat": 45.6346848,
        "minlon": 7.7281953,
        "maxlat": 45.6348702,
        "maxlon": 7.7284852
      },
      "nodes": [
        1295389354,
        1295389177,
        1295389117,
        1295389159,
        1295389232,
        1295389354
      ],
      "geometry": [
        {
          "lat": 45.6347729,
          "lon": 7.7281953
        },
        {
          "lat": 45.6348702,
          "lon": 7.7283251
        },
        {
          "lat": 45.634794,
          "lon": 7.7284852
        },
        {
          "lat": 45.6347754,
          "lon": 7.7284626
        },
        {
          "lat": 45.6346848,
          "lon": 7.7283431
        },
        {
          "lat": 45.6347729,
          "lon": 7.7281953
        }
      ],
      "tags": {
        "amenity": "parking",
        "name": "Gruviera",
        "sport": "climbing"
      }
    },
    {
      "type": "way",
      "id": 114379077,
      "bounds": {
        "minlat": 45.7479652,
        "minlon": 7.0273705,
        "maxlat": 45.7487778,
        "maxlon": 7.0291201
      },
      "nodes": [
        1295768868,
        8981382940,
        1295768549,
        1295768897,
        1295768628,
        1295768370,
        1295768786,
        1295768585
      ],
      "geometry": [
        {
          "lat": 45.7479652,
          "lon": 7.0285637
        },
        {
          "lat": 45.7481785,
          "lon": 7.0288678
        },
        {
          "lat": 45.7484696,
          "lon": 7.0290972
        },
        {
          "lat": 45.7486217,
          "lon": 7.0291201
        },
        {
          "lat": 45.7487218,
          "lon": 7.0288505
        },
        {
          "lat": 45.7487778,
          "lon": 7.0284547
        },
        {
          "lat": 45.7487097,
          "lon": 7.0279441
        },
        {
          "lat": 45.7487177,
          "lon": 7.0273705
        }
      ],
      "tags": {
        "material": "gneiss",
        "name": "Falesia Hans Marguerettaz",
        "natural": "cliff",
        "sport": "climbing"
      }
    },
    {
      "type": "way",
      "id": 114380401,
      "bounds": {
        "minlat": 45.685009,
        "minlon": 7.2356426,
        "maxlat": 45.6859997,
        "maxlon": 7.2368998
      },
      "nodes": [
        1295811195,
        1295811114,
        1295811137,
        1295811163,
        1295811152
      ],
      "geometry": [
        {
          "lat": 45.685009,
          "lon": 7.2356426
        },
        {
          "lat": 45.6854849,
          "lon": 7.2361262
        },
        {
          "lat": 45.6857187,
          "lon": 7.2363421
        },
        {
          "lat": 45.6858228,
          "lon": 7.2365216
        },
        {
          "lat": 45.6859997,
          "lon": 7.2368998
        }
      ],
      "tags": {
        "climbing:rock": "limestone",
        "climbing:toprope": "yes",
        "name": "Palestra di Roccia Mont Ross, Ozein",
        "natural": "cliff",
        "sport": "climbing",
        "website": "https://www.planetmountain.com/rock/falesie/falesia.html?idfalesia=81"
      }
    },
    {
      "type": "way",
      "id": 119763694,
      "bounds": {
        "minlat": 45.6896961,
        "minlon": 7.7051588,
        "maxlat": 45.6897946,
        "maxlon": 7.7052415
      },
      "nodes": [
        1344608632,
        1344608512,
        1344609393,
        1344608826,
        1344608632
      ],
      "geometry": [
        {
          "lat": 45.6897946,
          "lon": 7.705203
        },
        {
          "lat": 45.6897853,
          "lon": 7.7052415
        },
        {
          "lat": 45.6896961,
          "lon": 7.7051973
        },
        {
          "lat": 45.6897055,
          "lon": 7.7051588
        },
        {
          "lat": 45.6897946,
          "lon": 7.705203
        }
      ],
      "tags": {
        "access": "private",
        "leisure": "swimming_pool"
      }
    },
    {
      "type": "way",
      "id": 133996851,
      "bounds": {
        "minlat": 45.7029443,
        "minlon": 7.1651044,
        "maxlat": 45.7030362,
        "maxlon": 7.1653042
      },
      "nodes": [
        1474211456,
        1474211457,
        1474211448,
        1474211446,
        1474211456
      ],
      "geometry": [
        {
          "lat": 45.7030153,
          "lon": 7.1651044
        },
        {
          "lat": 45.7030362,
          "lon": 7.1652876
        },
        {
          "lat": 45.7029652,
          "lon": 7.1653042
        },
        {
          "lat": 45.7029443,
          "lon": 7.165121
        },
        {
          "lat": 45.7030153,
          "lon": 7.1651044
        }
      ],
      "tags": {
        "leisure": "swimming_pool"
      }
    },
    {
      "type": "way",
      "id": 134015490,
      "bounds": {
        "minlat": 45.699741,
        "minlon": 7.1669486,
        "maxlat": 45.6998068,
        "maxlon": 7.1670616
      },
      "nodes": [
        1474262311,
        1474262315,
        1474262309,
        1474262307,
        1474262311
      ],
      "geometry": [
        {
          "lat": 45.6997706,
          "lon": 7.1669486
        },
        {
          "lat": 45.6998068,
          "lon": 7.1670366
        },
        {
          "lat": 45.6997772,
          "lon": 7.1670616
        },
        {
          "lat": 45.699741,
          "lon": 7.1669736
        },
        {
          "lat": 45.6997706,
          "lon": 7.1669486
        }
      ],
      "tags": {
        "access": "private",
        "leisure": "swimming_pool"
      }
    },
    {
      "type": "way",
      "id": 148331212,
      "bounds": {
        "minlat": 45.7977717,
        "minlon": 6.9429369,
        "maxlat": 45.7985576,
        "maxlon": 6.9433168
      },
      "nodes": [
        1614394326,
        1614394322,
        1614394300,
        1614394276,
        1614394254,
        1614394247,
        1614394241,
        1614394226
      ],
      "geometry": [
        {
          "lat": 45.7985576,
          "lon": 6.9433168
        },
        {
          "lat": 45.7985123,
          "lon": 6.9429991
        },
        {
          "lat": 45.7983764,
          "lon": 6.9430352
        },
        {
          "lat": 45.79817,
          "lon": 6.9430027
        },
        {
          "lat": 45.7980215,
          "lon": 6.9430821
        },
        {
          "lat": 45.7979661,
          "lon": 6.9430749
        },
        {
          "lat": 45.7979377,
          "lon": 6.9429369
        },
        {
          "lat": 45.7977717,
          "lon": 6.9429943
        }
      ],
      "tags": {
        "height": "60",
        "name": "Falesia Chetif - Super Heroes",
        "natural": "cliff",
        "sport": "climbing"
      }
    },
    {
      "type": "way",
      "id": 152491145,
      "bounds": {
        "minlat": 45.7149672,
        "minlon": 6.9494539,
        "maxlat": 45.7150758,
        "maxlon": 6.9495744
      },
      "nodes": [
        1653092256,
        1653092259,
        1653092254,
        1653092252,
        1653092256
      ],
      "geometry": [
        {
          "lat": 45.7150556,
          "lon": 6.9494539
        },
        {
          "lat": 45.7150758,
          "lon": 6.9495166
        },
        {
          "lat": 45.7149874,
          "lon": 6.9495744
        },
        {
          "lat": 45.7149672,
          "lon": 6.949515
        },
        {
          "lat": 45.7150556,
          "lon": 6.9494539
        }
      ],
      "tags": {
        "leisure": "swimming_pool"
      }
    },
    {
      "type": "way",
      "id": 152491146,
      "bounds": {
        "minlat": 45.714205,
        "minlon": 6.9467336,
        "maxlat": 45.7143288,
        "maxlon": 6.9468833
      },
      "nodes": [
        1653092245,
        1653092244,
        1653092238,
        1653092240,
        1653092245
      ],
      "geometry": [
        {
          "lat": 45.7143288,
          "lon": 6.9468151
        },
        {
          "lat": 45.7143004,
          "lon": 6.9468833
        },
        {
          "lat": 45.714205,
          "lon": 6.9468018
        },
        {
          "lat": 45.7142334,
          "lon": 6.9467336
        },
        {
          "lat": 45.7143288,
          "lon": 6.9468151
        }
      ],
      "tags": {
        "access": "private",
        "leisure": "swimming_pool"
      }
    },
    {
      "type": "way",
      "id": 163785773,
      "bounds": {
        "minlat": 45.5998982,
        "minlon": 7.7568772,
        "maxlat": 45.600001,
        "maxlon": 7.7569819
      },
      "nodes": [
        1754631948,
        1754631878,
        1754631886,
        1754631956,
        1754631948
      ],
      "geometry": [
        {
          "lat": 45.5999909,
          "lon": 7.7569819
        },
        {
          "lat": 45.5998982,
          "lon": 7.7569584
        },
        {
          "lat": 45.5999083,
          "lon": 7.7568772
        },
        {
          "lat": 45.600001,
          "lon": 7.7569008
        },
        {
          "lat": 45.5999909,
          "lon": 7.7569819
        }
      ],
      "tags": {
        "leisure": "swimming_pool"
      }
    },
    {
      "type": "way",
      "id": 163990280,
      "bounds": {
        "minlat": 45.6056699,
        "minlon": 7.7673494,
        "maxlat": 45.605766,
        "maxlon": 7.7674214
      },
      "nodes": [
        1756539460,
        1756539459,
        1756539423,
        1756539425,
        1756539460
      ],
      "geometry": [
        {
          "lat": 45.605766,
          "lon": 7.7673509
        },
        {
          "lat": 45.6057655,
          "lon": 7.7674214
        },
        {
          "lat": 45.6056699,
          "lon": 7.7674199
        },
        {
          "lat": 45.6056704,
          "lon": 7.7673494
        },
        {
          "lat": 45.605766,
          "lon": 7.7673509
        }
      ],
      "tags": {
        "leisure": "swimming_pool"
      }
    },
    {
      "type": "way",
      "id": 164512659,
      "bounds": {
        "minlat": 45.6056935,
        "minlon": 7.7710437,
        "maxlat": 45.6057365,
        "maxlon": 7.7711706
      },
      "nodes": [
        1761441902,
        1761441900,
        1761441872,
        1761441886,
        1761441902
      ],
      "geometry": [
        {
          "lat": 45.6057365,
          "lon": 7.7710437
        },
        {
          "lat": 45.6057352,
          "lon": 7.7711678
        },
        {
          "lat": 45.6056935,
          "lon": 7.7711706
        },
        {
          "lat": 45.6056941,
          "lon": 7.7710447
        },
        {
          "lat": 45.6057365,
          "lon": 7.7710437
        }
      ],
      "tags": {
        "leisure": "swimming_pool"
      }
    },
    {
      "type": "way",
      "id": 165276195,
      "bounds": {
        "minlat": 45.5917453,
        "minlon": 7.808354,
        "maxlat": 45.5922541,
        "maxlon": 7.8090446
      },
      "nodes": [
        1768320169,
        1768320159
      ],
      "geometry": [
        {
          "lat": 45.5922541,
          "lon": 7.808354
        },
        {
          "lat": 45.5917453,
          "lon": 7.8090446
        }
      ],
      "tags": {
        "climbing:grade:french:max": "6b+",
        "climbing:grade:french:min": "5a",
        "name": "Falesia di Ivery",
        "name:fr": "Falaise d'Ivery",
        "natural": "cliff",
        "sport": "climbing",
        "website": "https://www.arrampicatainvalledaosta.it/4_alessio-garofalo-e-laurent-bosonetto-con-la-falesia-di-ivery/"
      }
    },
    {
      "type": "way",
      "id": 169108099,
      "bounds": {
        "minlat": 45.8655809,
        "minlon": 7.6150817,
        "maxlat": 45.8656553,
        "maxlon": 7.6152154
      },
      "nodes": [
        1802804520,
        1802804546,
        1802804519,
        1802804513,
        1802804520
      ],
      "geometry": [
        {
          "lat": 45.8656204,
          "lon": 7.6150817
        },
        {
          "lat": 45.8656553,
          "lon": 7.6151083
        },
        {
          "lat": 45.8656158,
          "lon": 7.6152154
        },
        {
          "lat": 45.8655809,
          "lon": 7.6151888
        },
        {
          "lat": 45.8656204,
          "lon": 7.6150817
        }
      ],
      "tags": {
        "leisure": "swimming_pool"
      }
    },
    {
      "type": "way",
      "id": 171322636,
      "bounds": {
        "minlat": 45.8129965,
        "minlon": 7.5910711,
        "maxlat": 45.8131285,
        "maxlon": 7.5911987
      },
      "nodes": [
        1823721642,
        1823721643,
        4212440622,
        4212440621,
        1823721641,
        1823721639,
        1823721642
      ],
      "geometry": [
        {
          "lat": 45.8130734,
          "lon": 7.5910711
        },
        {
          "lat": 45.8131285,
          "lon": 7.5911653
        },
        {
          "lat": 45.8131053,
          "lon": 7.5911932
        },
        {
          "lat": 45.8130708,
          "lon": 7.5911341
        },
        {
          "lat": 45.8130171,
          "lon": 7.5911987
        },
        {
          "lat": 45.8129965,
          "lon": 7.5911635
        },
        {
          "lat": 45.8130734,
          "lon": 7.5910711
        }
      ],
      "tags": {
        "leisure": "sports_centre",
        "man_made": "tower",
        "name": "Palestra di arrampicata",
        "sport": "climbing",
        "tower:type": "climbing"
      }
    },
    {
      "type": "way",
      "id": 171921501,
      "bounds": {
        "minlat": 45.7001252,
        "minlon": 7.2014323,
        "maxlat": 45.7003501,
        "maxlon": 7.2017491
      },
      "nodes": [
        1828802360,
        1828802328,
        1828802312,
        1828802333,
        1828802360
      ],
      "geometry": [
        {
          "lat": 45.7001898,
          "lon": 7.2014323
        },
        {
          "lat": 45.7001252,
          "lon": 7.2015286
        },
        {
          "lat": 45.7002854,
          "lon": 7.2017491
        },
        {
          "lat": 45.7003501,
          "lon": 7.2016527
        },
        {
          "lat": 45.7001898,
          "lon": 7.2014323
        }
      ],
      "tags": {
        "access": "yes",
        "covered": "no",
        "leisure": "swimming_pool",
        "location": "outdoor",
        "sport": "swimming",
        "swimming_pool": "inground"
      }
    },
    {
      "type": "way",
      "id": 193284198,
      "bounds": {
        "minlat": 45.75213,
        "minlon": 7.6402193,
        "maxlat": 45.7523156,
        "maxlon": 7.640522
      },
      "nodes": [
        2037950290,
        2037950294,
        2037950289,
        2037950285,
        2037950290
      ],
      "geometry": [
        {
          "lat": 45.752225,
          "lon": 7.6402193
        },
        {
          "lat": 45.7523156,
          "lon": 7.6402983
        },
        {
          "lat": 45.7522206,
          "lon": 7.640522
        },
        {
          "lat": 45.75213,
          "lon": 7.640443
        },
        {
          "lat": 45.752225,
          "lon": 7.6402193
        }
      ],
      "tags": {
        "leisure": "swimming_pool"
      }
    },
    {
      "type": "way",
      "id": 193302853,
      "bounds": {
        "minlat": 45.7495786,
        "minlon": 7.6467806,
        "maxlat": 45.7497294,
        "maxlon": 7.6471325
      },
      "nodes": [
        2038118286,
        2038118262,
        2038118324,
        2038118345,
        2038118286
      ],
      "geometry": [
        {
          "lat": 45.7496138,
          "lon": 7.6467806
        },
        {
          "lat": 45.7495786,
          "lon": 7.6471091
        },
        {
          "lat": 45.7496909,
          "lon": 7.6471325
        },
        {
          "lat": 45.7497294,
          "lon": 7.6468153
        },
        {
          "lat": 45.7496138,
          "lon": 7.6467806
        }
      ],
      "tags": {
        "leisure": "swimming_pool",
        "name": "Piscina scoperta"
      }
    },
    {
      "type": "way",
      "id": 193302855,
      "bounds": {
        "minlat": 45.7496674,
        "minlon": 7.6464119,
        "maxlat": 45.7497238,
        "maxlon": 7.6465534
      },
      "nodes": [
        2038118322,
        2038118342,
        2038118328,
        2038118307,
        2038118322
      ],
      "geometry": [
        {
          "lat": 45.749685,
          "lon": 7.6464119
        },
        {
          "lat": 45.7497238,
          "lon": 7.6464252
        },
        {
          "lat": 45.7497075,
          "lon": 7.6465534
        },
        {
          "lat": 45.7496674,
          "lon": 7.6465439
        },
        {
          "lat": 45.749685,
          "lon": 7.6464119
        }
      ],
      "tags": {
        "leisure": "swimming_pool",
        "name": "Piscina scoperta"
      }
    },
    {
      "type": "way",
      "id": 194489387,
      "bounds": {
        "minlat": 45.7421765,
        "minlon": 7.6567127,
        "maxlat": 45.7424296,
        "maxlon": 7.6573927
      },
      "nodes": [
        2049996665,
        2049996659,
        2049996655,
        2049996653,
        2049996647
      ],
      "geometry": [
        {
          "lat": 45.7424296,
          "lon": 7.6567127
        },
        {
          "lat": 45.7423088,
          "lon": 7.6567869
        },
        {
          "lat": 45.742257,
          "lon": 7.657061
        },
        {
          "lat": 45.7422441,
          "lon": 7.6572444
        },
        {
          "lat": 45.7421765,
          "lon": 7.6573927
        }
      ],
      "tags": {
        "climbing:grade:french:max": "6b+",
        "climbing:grade:french:min": "4b",
        "climbing:toprope": "yes",
        "name": "Falesia di Ponte romano",
        "natural": "cliff",
        "sport": "climbing",
        "website": "https://www.gulliver.it/itinerari/ponte-romano-falesia-del/"
      }
    },
    {
      "type": "way",
      "id": 194489388,
      "bounds": {
        "minlat": 45.7454723,
        "minlon": 7.6525393,
        "maxlat": 45.745548,
        "maxlon": 7.6526245
      },
      "nodes": [
        2049996934,
        2049996922,
        2049996906,
        2049996910,
        2049996914,
        2049996926,
        2049996932,
        2049996934
      ],
      "geometry": [
        {
          "lat": 45.745548,
          "lon": 7.6525633
        },
        {
          "lat": 45.7455257,
          "lon": 7.6526245
        },
        {
          "lat": 45.7454723,
          "lon": 7.6526121
        },
        {
          "lat": 45.7454804,
          "lon": 7.6525808
        },
        {
          "lat": 45.7455063,
          "lon": 7.6525517
        },
        {
          "lat": 45.7455363,
          "lon": 7.6525393
        },
        {
          "lat": 45.745545,
          "lon": 7.6525517
        },
        {
          "lat": 45.745548,
          "lon": 7.6525633
        }
      ],
      "tags": {
        "leisure": "swimming_pool"
      }
    },
    {
      "type": "way",
      "id": 231917776,
      "bounds": {
        "minlat": 45.6887667,
        "minlon": 7.3113734,
        "maxlat": 45.6888474,
        "maxlon": 7.3115466
      },
      "nodes": [
        2402429863,
        2402429868,
        2402429858,
        2402429856,
        2402429863
      ],
      "geometry": [
        {
          "lat": 45.688819,
          "lon": 7.3113734
        },
        {
          "lat": 45.6888474,
          "lon": 7.3115316
        },
        {
          "lat": 45.6887906,
          "lon": 7.3115466
        },
        {
          "lat": 45.6887667,
          "lon": 7.3113926
        },
        {
          "lat": 45.688819,
          "lon": 7.3113734
        }
      ],
      "tags": {
        "leisure": "swimming_pool",
        "operator": "Yeti Bar Restaurant",
        "website": "https://www.yetipila.it/#piscina"
      }
    },
    {
      "type": "way",
      "id": 234460878,
      "bounds": {
        "minlat": 45.9010401,
        "minlon": 7.561621,
        "maxlat": 45.9014358,
        "maxlon": 7.5630001
      },
      "nodes": [
        2427109261,
        2427109263,
        2427109267,
        2427109268,
        2427109266,
        2427109264,
        2427109270,
        2427109271
      ],
      "geometry": [
        {
          "lat": 45.9010401,
          "lon": 7.5630001
        },
        {
          "lat": 45.9012211,
          "lon": 7.5627763
        },
        {
          "lat": 45.90128,
          "lon": 7.5626735
        },
        {
          "lat": 45.9013095,
          "lon": 7.5624437
        },
        {
          "lat": 45.90128,
          "lon": 7.5622078
        },
        {
          "lat": 45.90128,
          "lon": 7.5619779
        },
        {
          "lat": 45.9013305,
          "lon": 7.5617783
        },
        {
          "lat": 45.9014358,
          "lon": 7.561621
        }
      ],
      "tags": {
        "climbing:sport": "yes",
        "natural": "cliff",
        "sport": "climbing"
      }
    },
    {
      "type": "way",
      "id": 247396113,
      "bounds": {
        "minlat": 45.7340659,
        "minlon": 7.3235181,
        "maxlat": 45.7341414,
        "maxlon": 7.3237276
      },
      "nodes": [
        2542867371,
        2542867372,
        2542867373,
        2542867375,
        2542867376,
        2542867374,
        2542867377,
        2542867378,
        2542867371
      ],
      "geometry": [
        {
          "lat": 45.7340659,
          "lon": 7.3236333
        },
        {
          "lat": 45.734118,
          "lon": 7.3235181
        },
        {
          "lat": 45.7341388,
          "lon": 7.3235672
        },
        {
          "lat": 45.7341254,
          "lon": 7.3236008
        },
        {
          "lat": 45.7341414,
          "lon": 7.3236276
        },
        {
          "lat": 45.7340967,
          "lon": 7.3237276
        },
        {
          "lat": 45.7340744,
          "lon": 7.3236799
        },
        {
          "lat": 45.7340838,
          "lon": 7.3236622
        },
        {
          "lat": 45.7340659,
          "lon": 7.3236333
        }
      ],
      "tags": {
        "amenity": "bicycle_rental",
        "name": "Strada Paravera",
        "name:fr": "Rue Paravère",
        "phone": "+39 0165 300560",
        "website": "https://www.regione.vda.it/gestione/riviweb/templates/aspx/environnement.aspx?pkArt=1406"
      }
    },
    {
      "type": "way",
      "id": 247427942,
      "bounds": {
        "minlat": 45.7332014,
        "minlon": 7.3199755,
        "maxlat": 45.7332364,
        "maxlon": 7.3200138
      },
      "nodes": [
        2543131122,
        2543131129,
        2543131133,
        2543131138,
        2543131122
      ],
      "geometry": [
        {
          "lat": 45.7332364,
          "lon": 7.3200032
        },
        {
          "lat": 45.7332059,
          "lon": 7.3200138
        },
        {
          "lat": 45.7332014,
          "lon": 7.3199862
        },
        {
          "lat": 45.7332319,
          "lon": 7.3199755
        },
        {
          "lat": 45.7332364,
          "lon": 7.3200032
        }
      ],
      "tags": {
        "amenity": "bicycle_rental",
        "phone": "+39 0165 300560",
        "website": "https://www.regione.vda.it/gestione/riviweb/templates/aspx/environnement.aspx?pkArt=1406"
      }
    },
    {
      "type": "way",
      "id": 247452855,
      "bounds": {
        "minlat": 45.7337938,
        "minlon": 7.3071742,
        "maxlat": 45.7339099,
        "maxlon": 7.3072924
      },
      "nodes": [
        2543328596,
        2543328599,
        2543328601,
        2543328603,
        2543328596
      ],
      "geometry": [
        {
          "lat": 45.7339099,
          "lon": 7.3072584
        },
        {
          "lat": 45.7338978,
          "lon": 7.3071742
        },
        {
          "lat": 45.7337938,
          "lon": 7.3072104
        },
        {
          "lat": 45.733808,
          "lon": 7.3072924
        },
        {
          "lat": 45.7339099,
          "lon": 7.3072584
        }
      ],
      "tags": {
        "addr:city": "Aosta",
        "addr:city:fr": "Aoste",
        "addr:street": "Corso Battaglione Aosta",
        "addr:street:fr": "Avenue Battaglione Aosta",
        "amenity": "bicycle_rental",
        "name": "Piazza Ducler",
        "name:fr": "Place Ducler"
      }
    },
    {
      "type": "way",
      "id": 247455838,
      "bounds": {
        "minlat": 45.7392982,
        "minlon": 7.3074935,
        "maxlat": 45.7393642,
        "maxlon": 7.3075772
      },
      "nodes": [
        2543361061,
        2543361062,
        1741155595,
        2543370592,
        2543361061
      ],
      "geometry": [
        {
          "lat": 45.7392982,
          "lon": 7.3075006
        },
        {
          "lat": 45.7392996,
          "lon": 7.3075772
        },
        {
          "lat": 45.7393642,
          "lon": 7.3075722
        },
        {
          "lat": 45.7393633,
          "lon": 7.3074935
        },
        {
          "lat": 45.7392982,
          "lon": 7.3075006
        }
      ],
      "tags": {
        "addr:housename": "Via Parigi",
        "addr:housenumber": "79",
        "amenity": "bicycle_rental",
        "name": "Gotrau",
        "phone": "+39 0165 300560",
        "website": "https://www.regione.vda.it/gestione/riviweb/templates/aspx/environnement.aspx?pkArt=1406"
      }
    },
    {
      "type": "way",
      "id": 247461811,
      "bounds": {
        "minlat": 45.7390954,
        "minlon": 7.3286425,
        "maxlat": 45.739177,
        "maxlon": 7.3287334
      },
      "nodes": [
        2359480362,
        2543440297,
        2543440299,
        2543440301,
        2359480362
      ],
      "geometry": [
        {
          "lat": 45.7391076,
          "lon": 7.3287334
        },
        {
          "lat": 45.739177,
          "lon": 7.3286814
        },
        {
          "lat": 45.739164,
          "lon": 7.3286425
        },
        {
          "lat": 45.7390954,
          "lon": 7.3286917
        },
        {
          "lat": 45.7391076,
          "lon": 7.3287334
        }
      ],
      "tags": {
        "amenity": "bicycle_rental",
        "bicycle_rental": "docking_station",
        "name": "Piazza Ancien Abattoir",
        "name:fr": "Place de l'Ancien Abattoir",
        "phone": "+39 0165 300560",
        "website": "https://www.regione.vda.it/gestione/riviweb/templates/aspx/environnement.aspx?pkArt=1406"
      }
    },
    {
      "type": "way",
      "id": 247463125,
      "bounds": {
        "minlat": 45.7348619,
        "minlon": 7.3229713,
        "maxlat": 45.7349111,
        "maxlon": 7.3230571
      },
      "nodes": [
        2543454365,
        2543454366,
        2543454367,
        2543454368,
        2543454365
      ],
      "geometry": [
        {
          "lat": 45.7348619,
          "lon": 7.3229827
        },
        {
          "lat": 45.7348796,
          "lon": 7.3230571
        },
        {
          "lat": 45.7349111,
          "lon": 7.3230448
        },
        {
          "lat": 45.7348918,
          "lon": 7.3229713
        },
        {
          "lat": 45.7348619,
          "lon": 7.3229827
        }
      ],
      "tags": {
        "addr:city": "Aosta",
        "addr:housename": "Via Carrel",
        "amenity": "bicycle_rental",
        "bicycle_rental": "docking_station",
        "name": "Terminal BUS",
        "phone": "+39 0165 300560",
        "website": "https://www.regione.vda.it/gestione/riviweb/templates/aspx/environnement.aspx?pkArt=1406"
      }
    },
    {
      "type": "way",
      "id": 247465151,
      "bounds": {
        "minlat": 45.7359019,
        "minlon": 7.329392,
        "maxlat": 45.736,
        "maxlon": 7.3295112
      },
      "nodes": [
        2543477867,
        2543477870,
        2543477873,
        2543477877,
        2543477867
      ],
      "geometry": [
        {
          "lat": 45.7359197,
          "lon": 7.3295112
        },
        {
          "lat": 45.736,
          "lon": 7.3294857
        },
        {
          "lat": 45.7359851,
          "lon": 7.329392
        },
        {
          "lat": 45.7359019,
          "lon": 7.3294176
        },
        {
          "lat": 45.7359197,
          "lon": 7.3295112
        }
      ],
      "tags": {
        "addr:housename": "Via Caduti del Lavoro",
        "amenity": "bicycle_rental",
        "name": "Via Caduti del Lavoro",
        "phone": "+39 0165 300560",
        "website": "https://www.regione.vda.it/gestione/riviweb/templates/aspx/environnement.aspx?pkArt=1406"
      }
    },
    {
      "type": "way",
      "id": 247562749,
      "bounds": {
        "minlat": 45.7419607,
        "minlon": 7.3242778,
        "maxlat": 45.7420306,
        "maxlon": 7.3244279
      },
      "nodes": [
        2544319777,
        2544319779,
        2544319781,
        2544319783,
        2544319777
      ],
      "geometry": [
        {
          "lat": 45.742015,
          "lon": 7.3242778
        },
        {
          "lat": 45.7419607,
          "lon": 7.3242906
        },
        {
          "lat": 45.7419756,
          "lon": 7.3244279
        },
        {
          "lat": 45.7420306,
          "lon": 7.324414
        },
        {
          "lat": 45.742015,
          "lon": 7.3242778
        }
      ],
      "tags": {
        "amenity": "bicycle_rental",
        "name": "Consolata",
        "name:fr": "Consolation",
        "phone": "+39 0165 300560",
        "website": "https://www.regione.vda.it/gestione/riviweb/templates/aspx/environnement.aspx?pkArt=1406"
      }
    },
    {
      "type": "way",
      "id": 268508860,
      "bounds": {
        "minlat": 45.7281931,
        "minlon": 7.3054455,
        "maxlat": 45.7284178,
        "maxlon": 7.3056203
      },
      "nodes": [
        2738425023,
        2738425026,
        2738425017,
        2738425016,
        2738425023
      ],
      "geometry": [
        {
          "lat": 45.7284,
          "lon": 7.3054455
        },
        {
          "lat": 45.7284178,
          "lon": 7.3055428
        },
        {
          "lat": 45.7282108,
          "lon": 7.3056203
        },
        {
          "lat": 45.7281931,
          "lon": 7.305523
        },
        {
          "lat": 45.7284,
          "lon": 7.3054455
        }
      ],
      "tags": {
        "leisure": "swimming_pool"
      }
    },
    {
      "type": "way",
      "id": 268508862,
      "bounds": {
        "minlat": 45.7278772,
        "minlon": 7.3051102,
        "maxlat": 45.7283615,
        "maxlon": 7.305527
      },
      "nodes": [
        2738425019,
        2738425021,
        2738425014,
        2738425013,
        2738425019
      ],
      "geometry": [
        {
          "lat": 45.7283154,
          "lon": 7.3051102
        },
        {
          "lat": 45.7283615,
          "lon": 7.3053629
        },
        {
          "lat": 45.7279233,
          "lon": 7.305527
        },
        {
          "lat": 45.7278772,
          "lon": 7.3052743
        },
        {
          "lat": 45.7283154,
          "lon": 7.3051102
        }
      ],
      "tags": {
        "leisure": "swimming_pool"
      }
    },
    {
      "type": "way",
      "id": 268525744,
      "bounds": {
        "minlat": 45.7408196,
        "minlon": 7.4723312,
        "maxlat": 45.7409096,
        "maxlon": 7.4725055
      },
      "nodes": [
        2738675057,
        2738675059,
        2738675056,
        2738675054,
        2738675057
      ],
      "geometry": [
        {
          "lat": 45.7408743,
          "lon": 7.4723312
        },
        {
          "lat": 45.7409096,
          "lon": 7.4724786
        },
        {
          "lat": 45.7408548,
          "lon": 7.4725055
        },
        {
          "lat": 45.7408196,
          "lon": 7.472358
        },
        {
          "lat": 45.7408743,
          "lon": 7.4723312
        }
      ],
      "tags": {
        "access": "private",
        "leisure": "swimming_pool"
      }
    },
    {
      "type": "way",
      "id": 288199397,
      "bounds": {
        "minlat": 45.5973647,
        "minlon": 7.7561749,
        "maxlat": 45.5973983,
        "maxlon": 7.7569929
      },
      "nodes": [
        2917470301,
        2917470302,
        2917469303,
        2917470202
      ],
      "geometry": [
        {
          "lat": 45.5973983,
          "lon": 7.7569929
        },
        {
          "lat": 45.5973647,
          "lon": 7.7568151
        },
        {
          "lat": 45.5973677,
          "lon": 7.7565665
        },
        {
          "lat": 45.5973887,
          "lon": 7.7561749
        }
      ],
      "tags": {
        "natural": "cliff",
        "sport": "climbing"
      }
    },
    {
      "type": "way",
      "id": 288199398,
      "bounds": {
        "minlat": 45.5972158,
        "minlon": 7.7542314,
        "maxlat": 45.5973734,
        "maxlon": 7.7549806
      },
      "nodes": [
        2917469203,
        2917469603,
        2917469403,
        2917469204
      ],
      "geometry": [
        {
          "lat": 45.5972158,
          "lon": 7.7549806
        },
        {
          "lat": 45.5972785,
          "lon": 7.7548179
        },
        {
          "lat": 45.5973524,
          "lon": 7.754623
        },
        {
          "lat": 45.5973734,
          "lon": 7.7542314
        }
      ],
      "tags": {
        "natural": "cliff",
        "sport": "climbing"
      }
    },
    {
      "type": "way",
      "id": 293812045,
      "bounds": {
        "minlat": 45.7599856,
        "minlon": 7.720545,
        "maxlat": 45.7600788,
        "maxlon": 7.720653
      },
      "nodes": [
        2973969779,
        2973969781,
        2973969780,
        2973969778,
        2973969779
      ],
      "geometry": [
        {
          "lat": 45.7600045,
          "lon": 7.720545
        },
        {
          "lat": 45.7600788,
          "lon": 7.7205941
        },
        {
          "lat": 45.7600598,
          "lon": 7.720653
        },
        {
          "lat": 45.7599856,
          "lon": 7.7206039
        },
        {
          "lat": 45.7600045,
          "lon": 7.720545
        }
      ],
      "tags": {
        "height": "12",
        "leisure": "sports_centre",
        "man_made": "tower",
        "sport": "climbing",
        "tower:type": "climbing"
      }
    },
    {
      "type": "way",
      "id": 295964878,
      "bounds": {
        "minlat": 45.8315797,
        "minlon": 7.823313,
        "maxlat": 45.8316252,
        "maxlon": 7.8233787
      },
      "nodes": [
        2997249092,
        2997249093,
        2997249094,
        2997249095,
        2997249092
      ],
      "geometry": [
        {
          "lat": 45.8316252,
          "lon": 7.8233505
        },
        {
          "lat": 45.8316001,
          "lon": 7.8233787
        },
        {
          "lat": 45.8315797,
          "lon": 7.8233411
        },
        {
          "lat": 45.8316048,
          "lon": 7.823313
        },
        {
          "lat": 45.8316252,
          "lon": 7.8233505
        }
      ],
      "tags": {
        "access": "customers",
        "leisure": "swimming_pool"
      }
    },
    {
      "type": "way",
      "id": 300274729,
      "bounds": {
        "minlat": 45.737531,
        "minlon": 7.4039302,
        "maxlat": 45.7377647,
        "maxlon": 7.4040841
      },
      "nodes": [
        3043754741,
        3043754743,
        3043754611,
        3043754607,
        3043754741
      ],
      "geometry": [
        {
          "lat": 45.7377572,
          "lon": 7.4039302
        },
        {
          "lat": 45.7377647,
          "lon": 7.4040566
        },
        {
          "lat": 45.7375384,
          "lon": 7.4040841
        },
        {
          "lat": 45.737531,
          "lon": 7.4039578
        },
        {
          "lat": 45.7377572,
          "lon": 7.4039302
        }
      ],
      "tags": {
        "leisure": "swimming_pool"
      }
    },
    {
      "type": "way",
      "id": 303151821,
      "bounds": {
        "minlat": 45.5962732,
        "minlon": 7.3986314,
        "maxlat": 45.5964026,
        "maxlon": 7.3991519
      },
      "nodes": [
        1439049947,
        1439049926,
        1439049904
      ],
      "geometry": [
        {
          "lat": 45.5964026,
          "lon": 7.3986314
        },
        {
          "lat": 45.5963117,
          "lon": 7.3989486
        },
        {
          "lat": 45.5962732,
          "lon": 7.3991519
        }
      ],
      "tags": {
        "climbing:bolted": "yes",
        "climbing:grade:french:max": "6b",
        "climbing:grade:french:min": "3",
        "climbing:multipitch": "yes",
        "climbing:orientation": "S",
        "climbing:sport": "yes",
        "name": "Palestra di Roccia di Lillaz",
        "natural": "cliff",
        "sport": "climbing"
      }
    },
    {
      "type": "way",
      "id": 304199051,
      "bounds": {
        "minlat": 45.7424024,
        "minlon": 7.3317337,
        "maxlat": 45.7425626,
        "maxlon": 7.3320297
      },
      "nodes": [
        3087266621,
        3087266617,
        3087266615,
        3087266614,
        3087266612,
        3087266611,
        3087266609,
        3087266608,
        3087266605,
        3087266602,
        3087266600,
        3087266599,
        3087266597,
        3087266598,
        3087266601,
        3087266603,
        3087266606,
        3087266604,
        3087266607,
        3087266610,
        3087266613,
        3087266616,
        3087266618,
        3087266619,
        3087266620,
        3087266623,
        3087266625,
        3087267133,
        3087267134,
        3087267136,
        3087267135,
        3087266630,
        3087266626,
        3087266624,
        3087266627,
        3087266629,
        3087266631,
        3087266632,
        3087266628,
        3087266622,
        3087266621
      ],
      "geometry": [
        {
          "lat": 45.7425236,
          "lon": 7.3317413
        },
        {
          "lat": 45.7425039,
          "lon": 7.3317337
        },
        {
          "lat": 45.7424956,
          "lon": 7.3317684
        },
        {
          "lat": 45.7424926,
          "lon": 7.3318075
        },
        {
          "lat": 45.7424804,
          "lon": 7.3318237
        },
        {
          "lat": 45.7424714,
          "lon": 7.3318368
        },
        {
          "lat": 45.7424653,
          "lon": 7.3318585
        },
        {
          "lat": 45.7424577,
          "lon": 7.3318878
        },
        {
          "lat": 45.7424494,
          "lon": 7.331903
        },
        {
          "lat": 45.7424358,
          "lon": 7.331916
        },
        {
          "lat": 45.7424176,
          "lon": 7.3319225
        },
        {
          "lat": 45.7424077,
          "lon": 7.3319312
        },
        {
          "lat": 45.7424024,
          "lon": 7.3319453
        },
        {
          "lat": 45.7424062,
          "lon": 7.3319561
        },
        {
          "lat": 45.7424191,
          "lon": 7.3319702
        },
        {
          "lat": 45.7424441,
          "lon": 7.3319865
        },
        {
          "lat": 45.7424517,
          "lon": 7.3319909
        },
        {
          "lat": 45.7424456,
          "lon": 7.3320104
        },
        {
          "lat": 45.7424554,
          "lon": 7.3320191
        },
        {
          "lat": 45.7424668,
          "lon": 7.3320288
        },
        {
          "lat": 45.7424835,
          "lon": 7.3320278
        },
        {
          "lat": 45.7425032,
          "lon": 7.3320213
        },
        {
          "lat": 45.7425051,
          "lon": 7.3320297
        },
        {
          "lat": 45.7425149,
          "lon": 7.3320237
        },
        {
          "lat": 45.7425191,
          "lon": 7.3320194
        },
        {
          "lat": 45.742524,
          "lon": 7.3320129
        },
        {
          "lat": 45.7425289,
          "lon": 7.3320064
        },
        {
          "lat": 45.7425475,
          "lon": 7.3320243
        },
        {
          "lat": 45.7425535,
          "lon": 7.3320145
        },
        {
          "lat": 45.7425626,
          "lon": 7.3319798
        },
        {
          "lat": 45.7425619,
          "lon": 7.3319299
        },
        {
          "lat": 45.7425357,
          "lon": 7.3319288
        },
        {
          "lat": 45.7425304,
          "lon": 7.3319266
        },
        {
          "lat": 45.7425285,
          "lon": 7.3319206
        },
        {
          "lat": 45.7425312,
          "lon": 7.3319125
        },
        {
          "lat": 45.7425353,
          "lon": 7.3318957
        },
        {
          "lat": 45.7425369,
          "lon": 7.3318843
        },
        {
          "lat": 45.7425376,
          "lon": 7.331785
        },
        {
          "lat": 45.7425331,
          "lon": 7.331779
        },
        {
          "lat": 45.742524,
          "lon": 7.3317644
        },
        {
          "lat": 45.7425236,
          "lon": 7.3317413
        }
      ],
      "tags": {
        "access": "customers",
        "leisure": "swimming_pool"
      }
    },
    {
      "type": "way",
      "id": 304199923,
      "bounds": {
        "minlat": 45.6331086,
        "minlon": 7.3174983,
        "maxlat": 45.6334746,
        "maxlon": 7.3182101
      },
      "nodes": [
        3087274342,
        3087274341,
        3087274340,
        3087274339,
        3087274338,
        3087274337,
        3087274336,
        3087274335,
        3087274334
      ],
      "geometry": [
        {
          "lat": 45.6334746,
          "lon": 7.3174983
        },
        {
          "lat": 45.6333814,
          "lon": 7.3176467
        },
        {
          "lat": 45.6333324,
          "lon": 7.3177701
        },
        {
          "lat": 45.6332741,
          "lon": 7.3177384
        },
        {
          "lat": 45.6332461,
          "lon": 7.3177751
        },
        {
          "lat": 45.633231,
          "lon": 7.3178517
        },
        {
          "lat": 45.6331774,
          "lon": 7.3180618
        },
        {
          "lat": 45.6331412,
          "lon": 7.3181301
        },
        {
          "lat": 45.6331086,
          "lon": 7.3182101
        }
      ],
      "tags": {
        "access": "yes",
        "climbing:orientation": "SW",
        "climbing:quality": "solid",
        "climbing:sport": "yes",
        "name": "Palestra Gerard",
        "natural": "cliff",
        "opening_hours": "24/7",
        "sport": "climbing"
      }
    },
    {
      "type": "way",
      "id": 304199924,
      "bounds": {
        "minlat": 45.6337271,
        "minlon": 7.3168767,
        "maxlat": 45.6337784,
        "maxlon": 7.3172084
      },
      "nodes": [
        3087274345,
        3087274344,
        3087274343
      ],
      "geometry": [
        {
          "lat": 45.6337784,
          "lon": 7.3168767
        },
        {
          "lat": 45.6337703,
          "lon": 7.317015
        },
        {
          "lat": 45.6337271,
          "lon": 7.3172084
        }
      ],
      "tags": {
        "access": "yes",
        "climbing:bolted": "yes",
        "climbing:orientation": "SW",
        "climbing:quality": "solid",
        "climbing:sport": "yes",
        "name": "Palestra di Roccia Epinel",
        "natural": "cliff",
        "opening_hours": "24/7",
        "sport": "climbing"
      }
    },
    {
      "type": "way",
      "id": 306225932,
      "bounds": {
        "minlat": 45.7884695,
        "minlon": 6.9443258,
        "maxlat": 45.7886925,
        "maxlon": 6.9445103
      },
      "nodes": [
        3110747092,
        3110747093,
        3110747094,
        3110747095,
        3110747092
      ],
      "geometry": [
        {
          "lat": 45.7886925,
          "lon": 6.9443659
        },
        {
          "lat": 45.7885118,
          "lon": 6.9443258
        },
        {
          "lat": 45.7884695,
          "lon": 6.9444542
        },
        {
          "lat": 45.7886803,
          "lon": 6.9445103
        },
        {
          "lat": 45.7886925,
          "lon": 6.9443659
        }
      ],
      "tags": {
        "leisure": "swimming_pool"
      }
    },
    {
      "type": "way",
      "id": 325205842,
      "bounds": {
        "minlat": 45.5974729,
        "minlon": 7.7977866,
        "maxlat": 45.5976268,
        "maxlon": 7.7980146
      },
      "nodes": [
        3318632409,
        3318632410,
        3318632411,
        3318632412,
        3318632409
      ],
      "geometry": [
        {
          "lat": 45.5976268,
          "lon": 7.7978752
        },
        {
          "lat": 45.597533,
          "lon": 7.7980146
        },
        {
          "lat": 45.5974729,
          "lon": 7.7979422
        },
        {
          "lat": 45.597563,
          "lon": 7.7977866
        },
        {
          "lat": 45.5976268,
          "lon": 7.7978752
        }
      ],
      "tags": {
        "access": "private",
        "leisure": "swimming_pool"
      }
    },
    {
      "type": "way",
      "id": 338304133,
      "bounds": {
        "minlat": 45.7286654,
        "minlon": 7.504096,
        "maxlat": 45.7294023,
        "maxlon": 7.5045794
      },
      "nodes": [
        3453812527,
        3453812521,
        3453812517,
        3453812513,
        3453812511,
        3453812509,
        3453812514,
        3453812518,
        3453812522,
        3453812524,
        3453812527
      ],
      "geometry": [
        {
          "lat": 45.7294023,
          "lon": 7.504154
        },
        {
          "lat": 45.7291999,
          "lon": 7.504096
        },
        {
          "lat": 45.7289947,
          "lon": 7.5041308
        },
        {
          "lat": 45.7288327,
          "lon": 7.5042507
        },
        {
          "lat": 45.7287086,
          "lon": 7.5044054
        },
        {
          "lat": 45.7286654,
          "lon": 7.5045794
        },
        {
          "lat": 45.7288516,
          "lon": 7.5045368
        },
        {
          "lat": 45.7290217,
          "lon": 7.5044286
        },
        {
          "lat": 45.7292053,
          "lon": 7.5042855
        },
        {
          "lat": 45.7293294,
          "lon": 7.5041888
        },
        {
          "lat": 45.7294023,
          "lon": 7.504154
        }
      ],
      "tags": {
        "climbing:sport": "yes",
        "description:it": "Palestra di arrampicata sportiva",
        "leisure": "sports_centre",
        "sport": "climbing"
      }
    },
    {
      "type": "way",
      "id": 365255037,
      "bounds": {
        "minlat": 45.6831166,
        "minlon": 7.612232,
        "maxlat": 45.6831855,
        "maxlon": 7.612301
      },
      "nodes": [
        3692889949,
        3692889950,
        3692889947,
        3692889938,
        3692889522,
        3693674357,
        3692889518,
        3693674356,
        3692889516,
        3692889519,
        3692889520,
        3692889521,
        3692889523,
        3692889524,
        3692889931,
        3692889937,
        3692889945,
        3692889949
      ],
      "geometry": [
        {
          "lat": 45.6831847,
          "lon": 7.6122673
        },
        {
          "lat": 45.6831855,
          "lon": 7.6122812
        },
        {
          "lat": 45.6831794,
          "lon": 7.6122958
        },
        {
          "lat": 45.6831676,
          "lon": 7.612301
        },
        {
          "lat": 45.6831488,
          "lon": 7.6122965
        },
        {
          "lat": 45.6831368,
          "lon": 7.61229
        },
        {
          "lat": 45.6831217,
          "lon": 7.6122719
        },
        {
          "lat": 45.6831174,
          "lon": 7.612262
        },
        {
          "lat": 45.6831166,
          "lon": 7.6122487
        },
        {
          "lat": 45.6831229,
          "lon": 7.6122358
        },
        {
          "lat": 45.6831319,
          "lon": 7.612232
        },
        {
          "lat": 45.6831396,
          "lon": 7.6122347
        },
        {
          "lat": 45.6831452,
          "lon": 7.6122426
        },
        {
          "lat": 45.6831499,
          "lon": 7.6122533
        },
        {
          "lat": 45.6831571,
          "lon": 7.6122574
        },
        {
          "lat": 45.6831666,
          "lon": 7.6122515
        },
        {
          "lat": 45.6831768,
          "lon": 7.6122545
        },
        {
          "lat": 45.6831847,
          "lon": 7.6122673
        }
      ],
      "tags": {
        "layer": "1",
        "leisure": "swimming_pool"
      }
    },
    {
      "type": "way",
      "id": 365255038,
      "bounds": {
        "minlat": 45.6831482,
        "minlon": 7.6122089,
        "maxlat": 45.6831727,
        "maxlon": 7.6122439
      },
      "nodes": [
        3692889928,
        3692889930,
        3692889933,
        3692889936,
        3692889940,
        3692889942,
        3692889944,
        3692889943,
        3692889941,
        3692889939,
        3692889935,
        3692889932,
        3692889929,
        3692889927,
        3692889925,
        3692889926,
        3692889928
      ],
      "geometry": [
        {
          "lat": 45.6831507,
          "lon": 7.6122372
        },
        {
          "lat": 45.6831543,
          "lon": 7.6122417
        },
        {
          "lat": 45.6831589,
          "lon": 7.6122439
        },
        {
          "lat": 45.6831637,
          "lon": 7.6122435
        },
        {
          "lat": 45.683168,
          "lon": 7.6122404
        },
        {
          "lat": 45.6831711,
          "lon": 7.6122352
        },
        {
          "lat": 45.6831727,
          "lon": 7.6122287
        },
        {
          "lat": 45.6831724,
          "lon": 7.6122218
        },
        {
          "lat": 45.6831702,
          "lon": 7.6122157
        },
        {
          "lat": 45.6831666,
          "lon": 7.6122111
        },
        {
          "lat": 45.683162,
          "lon": 7.6122089
        },
        {
          "lat": 45.6831572,
          "lon": 7.6122094
        },
        {
          "lat": 45.6831529,
          "lon": 7.6122125
        },
        {
          "lat": 45.6831498,
          "lon": 7.6122177
        },
        {
          "lat": 45.6831482,
          "lon": 7.6122242
        },
        {
          "lat": 45.6831486,
          "lon": 7.612231
        },
        {
          "lat": 45.6831507,
          "lon": 7.6122372
        }
      ],
      "tags": {
        "layer": "1",
        "leisure": "swimming_pool"
      }
    },
    {
      "type": "way",
      "id": 376246214,
      "bounds": {
        "minlat": 45.5976296,
        "minlon": 7.7902537,
        "maxlat": 45.5976768,
        "maxlon": 7.7903681
      },
      "nodes": [
        3796895953,
        3796895954,
        3796895951,
        3796895949,
        3796895946,
        3796895939,
        3796895938,
        3796895943,
        3796895942,
        3796895941,
        3796895945,
        3796895947,
        3796895950,
        3796895953
      ],
      "geometry": [
        {
          "lat": 45.5976726,
          "lon": 7.7902601
        },
        {
          "lat": 45.5976768,
          "lon": 7.7903483
        },
        {
          "lat": 45.5976691,
          "lon": 7.7903631
        },
        {
          "lat": 45.5976598,
          "lon": 7.7903681
        },
        {
          "lat": 45.5976459,
          "lon": 7.7903641
        },
        {
          "lat": 45.5976324,
          "lon": 7.7903478
        },
        {
          "lat": 45.5976296,
          "lon": 7.7903304
        },
        {
          "lat": 45.5976383,
          "lon": 7.7903151
        },
        {
          "lat": 45.5976383,
          "lon": 7.7902883
        },
        {
          "lat": 45.5976369,
          "lon": 7.7902651
        },
        {
          "lat": 45.5976438,
          "lon": 7.7902561
        },
        {
          "lat": 45.5976542,
          "lon": 7.7902547
        },
        {
          "lat": 45.5976612,
          "lon": 7.7902537
        },
        {
          "lat": 45.5976726,
          "lon": 7.7902601
        }
      ],
      "tags": {
        "leisure": "swimming_pool"
      }
    },
    {
      "type": "way",
      "id": 377142772,
      "bounds": {
        "minlat": 45.5910702,
        "minlon": 7.801203,
        "maxlat": 45.591151,
        "maxlon": 7.8012723
      },
      "nodes": [
        3805155927,
        3805155929,
        3805155918,
        3805155917,
        3805155927
      ],
      "geometry": [
        {
          "lat": 45.5911445,
          "lon": 7.801203
        },
        {
          "lat": 45.591151,
          "lon": 7.8012525
        },
        {
          "lat": 45.5910767,
          "lon": 7.8012723
        },
        {
          "lat": 45.5910702,
          "lon": 7.8012229
        },
        {
          "lat": 45.5911445,
          "lon": 7.801203
        }
      ],
      "tags": {
        "leisure": "swimming_pool"
      }
    },
    {
      "type": "way",
      "id": 377436893,
      "bounds": {
        "minlat": 45.7261982,
        "minlon": 7.2943667,
        "maxlat": 45.7263087,
        "maxlon": 7.2945907
      },
      "nodes": [
        3808053333,
        3808053334,
        3808053335,
        3808053336,
        3808053333
      ],
      "geometry": [
        {
          "lat": 45.7263087,
          "lon": 7.2943949
        },
        {
          "lat": 45.7262412,
          "lon": 7.2943667
        },
        {
          "lat": 45.7261982,
          "lon": 7.2945598
        },
        {
          "lat": 45.7262675,
          "lon": 7.2945907
        },
        {
          "lat": 45.7263087,
          "lon": 7.2943949
        }
      ],
      "tags": {
        "leisure": "swimming_pool"
      }
    },
    {
      "type": "way",
      "id": 378890374,
      "bounds": {
        "minlat": 45.7400621,
        "minlon": 7.4355007,
        "maxlat": 45.7401542,
        "maxlon": 7.4356657
      },
      "nodes": [
        3822497237,
        3822497238,
        3822497239,
        3822497240,
        3822497241,
        3822497242,
        3822497243,
        3822497244,
        3822497237
      ],
      "geometry": [
        {
          "lat": 45.7401275,
          "lon": 7.4355944
        },
        {
          "lat": 45.7401505,
          "lon": 7.435605
        },
        {
          "lat": 45.7401542,
          "lon": 7.4356412
        },
        {
          "lat": 45.7401468,
          "lon": 7.4356572
        },
        {
          "lat": 45.7401208,
          "lon": 7.4356625
        },
        {
          "lat": 45.7400695,
          "lon": 7.4356657
        },
        {
          "lat": 45.7400621,
          "lon": 7.4355081
        },
        {
          "lat": 45.7401223,
          "lon": 7.4355007
        },
        {
          "lat": 45.7401275,
          "lon": 7.4355944
        }
      ],
      "tags": {
        "leisure": "swimming_pool"
      }
    },
    {
      "type": "way",
      "id": 401632808,
      "bounds": {
        "minlat": 45.628805,
        "minlon": 7.8419868,
        "maxlat": 45.6288721,
        "maxlon": 7.8421028
      },
      "nodes": [
        4040426288,
        4040426293,
        4040426291,
        4040426282,
        4040426288
      ],
      "geometry": [
        {
          "lat": 45.6288346,
          "lon": 7.8419868
        },
        {
          "lat": 45.6288721,
          "lon": 7.8420391
        },
        {
          "lat": 45.628847,
          "lon": 7.8421028
        },
        {
          "lat": 45.628805,
          "lon": 7.8420327
        },
        {
          "lat": 45.6288346,
          "lon": 7.8419868
        }
      ],
      "tags": {
        "access": "private",
        "leisure": "swimming_pool"
      }
    },
    {
      "type": "way",
      "id": 404401501,
      "bounds": {
        "minlat": 45.7472623,
        "minlon": 7.6621515,
        "maxlat": 45.748139,
        "maxlon": 7.6630182
      },
      "nodes": [
        4066793967,
        9556157675,
        4066793973,
        4066793978,
        4066793976,
        4066793974,
        4066793972,
        4066793970,
        4066793968,
        4066793964,
        4066793963,
        4066793965,
        4066793967
      ],
      "geometry": [
        {
          "lat": 45.7474118,
          "lon": 7.6622506
        },
        {
          "lat": 45.7477808,
          "lon": 7.6626316
        },
        {
          "lat": 45.7478952,
          "lon": 7.6627498
        },
        {
          "lat": 45.748139,
          "lon": 7.6629495
        },
        {
          "lat": 45.7480389,
          "lon": 7.6630182
        },
        {
          "lat": 45.7479366,
          "lon": 7.6630119
        },
        {
          "lat": 45.7477919,
          "lon": 7.6628796
        },
        {
          "lat": 45.7475825,
          "lon": 7.662681
        },
        {
          "lat": 45.7474163,
          "lon": 7.6625133
        },
        {
          "lat": 45.7472777,
          "lon": 7.6623545
        },
        {
          "lat": 45.7472623,
          "lon": 7.6621956
        },
        {
          "lat": 45.7473516,
          "lon": 7.6621515
        },
        {
          "lat": 45.7474118,
          "lon": 7.6622506
        }
      ],
      "tags": {
        "area": "yes",
        "climbing:sport": "yes",
        "name": "Palestra di arrampicata sportiva",
        "sport": "climbing"
      }
    },
    {
      "type": "way",
      "id": 425896057,
      "bounds": {
        "minlat": 45.8292779,
        "minlon": 7.5233929,
        "maxlat": 45.8294967,
        "maxlon": 7.5236233
      },
      "nodes": [
        4252099990,
        4252099989,
        4252099991,
        4252099992,
        4252099994,
        4252099995
      ],
      "geometry": [
        {
          "lat": 45.8292852,
          "lon": 7.5233929
        },
        {
          "lat": 45.8292779,
          "lon": 7.5234967
        },
        {
          "lat": 45.8293158,
          "lon": 7.5235856
        },
        {
          "lat": 45.8293836,
          "lon": 7.5236233
        },
        {
          "lat": 45.8294534,
          "lon": 7.5235944
        },
        {
          "lat": 45.8294967,
          "lon": 7.5235107
        }
      ],
      "tags": {
        "climbing:sport": "yes",
        "natural": "cliff",
        "sport": "climbing"
      }
    },
    {
      "type": "way",
      "id": 430378580,
      "bounds": {
        "minlat": 45.694397,
        "minlon": 7.6661056,
        "maxlat": 45.6944479,
        "maxlon": 7.6662711
      },
      "nodes": [
        4296632546,
        4296632544,
        4296632531,
        4296632532,
        4296632546
      ],
      "geometry": [
        {
          "lat": 45.6944479,
          "lon": 7.6661108
        },
        {
          "lat": 45.6944381,
          "lon": 7.6662711
        },
        {
          "lat": 45.694397,
          "lon": 7.6662659
        },
        {
          "lat": 45.6944068,
          "lon": 7.6661056
        },
        {
          "lat": 45.6944479,
          "lon": 7.6661108
        }
      ],
      "tags": {
        "leisure": "swimming_pool"
      }
    },
    {
      "type": "way",
      "id": 442067861,
      "bounds": {
        "minlat": 45.8229346,
        "minlon": 7.3248661,
        "maxlat": 45.8229696,
        "maxlon": 7.3249633
      },
      "nodes": [
        4397594379,
        4397594380,
        4397594381,
        4397594383,
        4397594385,
        4397594386,
        4397594388,
        4397595090,
        4397595092,
        4397595094,
        4397595095,
        4397595093,
        4397595091,
        4397595089,
        4397594387,
        4397594384,
        4397594382,
        4397594379
      ],
      "geometry": [
        {
          "lat": 45.8229346,
          "lon": 7.3248848
        },
        {
          "lat": 45.8229346,
          "lon": 7.3249472
        },
        {
          "lat": 45.8229372,
          "lon": 7.3249539
        },
        {
          "lat": 45.8229411,
          "lon": 7.3249591
        },
        {
          "lat": 45.822946,
          "lon": 7.3249624
        },
        {
          "lat": 45.8229513,
          "lon": 7.3249633
        },
        {
          "lat": 45.8229565,
          "lon": 7.3249619
        },
        {
          "lat": 45.8229613,
          "lon": 7.3249583
        },
        {
          "lat": 45.8229671,
          "lon": 7.3249517
        },
        {
          "lat": 45.8229692,
          "lon": 7.3249432
        },
        {
          "lat": 45.8229696,
          "lon": 7.3248862
        },
        {
          "lat": 45.8229673,
          "lon": 7.3248783
        },
        {
          "lat": 45.8229634,
          "lon": 7.3248719
        },
        {
          "lat": 45.8229582,
          "lon": 7.3248677
        },
        {
          "lat": 45.8229524,
          "lon": 7.3248661
        },
        {
          "lat": 45.8229449,
          "lon": 7.3248684
        },
        {
          "lat": 45.8229385,
          "lon": 7.3248743
        },
        {
          "lat": 45.8229346,
          "lon": 7.3248848
        }
      ],
      "tags": {
        "access": "private",
        "leisure": "swimming_pool"
      }
    },
    {
      "type": "way",
      "id": 442069838,
      "bounds": {
        "minlat": 45.8282493,
        "minlon": 7.3267785,
        "maxlat": 45.8283297,
        "maxlon": 7.3268797
      },
      "nodes": [
        4397609577,
        4397609578,
        4397609581,
        4397609582,
        4397609583,
        4397609584,
        4397609580,
        4397609579,
        4397609576,
        4397609571,
        4397609567,
        4397609564,
        4397609560,
        4397609558,
        4397609557,
        4397609559,
        4397609561,
        4397609562,
        4397609563,
        4397609565,
        4397609566,
        4397609568,
        4397609569,
        4397609570,
        4397609572,
        4397609573,
        4397609574,
        4397609575,
        4397609577
      ],
      "geometry": [
        {
          "lat": 45.8283178,
          "lon": 7.3268325
        },
        {
          "lat": 45.8283215,
          "lon": 7.3268271
        },
        {
          "lat": 45.828326,
          "lon": 7.3268231
        },
        {
          "lat": 45.8283288,
          "lon": 7.3268164
        },
        {
          "lat": 45.8283295,
          "lon": 7.326809
        },
        {
          "lat": 45.8283297,
          "lon": 7.3268009
        },
        {
          "lat": 45.8283257,
          "lon": 7.3267869
        },
        {
          "lat": 45.828322,
          "lon": 7.3267812
        },
        {
          "lat": 45.8283173,
          "lon": 7.3267785
        },
        {
          "lat": 45.8282914,
          "lon": 7.3267838
        },
        {
          "lat": 45.8282736,
          "lon": 7.3267989
        },
        {
          "lat": 45.8282657,
          "lon": 7.3268093
        },
        {
          "lat": 45.8282524,
          "lon": 7.3268314
        },
        {
          "lat": 45.8282503,
          "lon": 7.3268382
        },
        {
          "lat": 45.8282493,
          "lon": 7.3268459
        },
        {
          "lat": 45.8282503,
          "lon": 7.3268532
        },
        {
          "lat": 45.8282549,
          "lon": 7.3268667
        },
        {
          "lat": 45.828258,
          "lon": 7.326873
        },
        {
          "lat": 45.8282624,
          "lon": 7.3268767
        },
        {
          "lat": 45.8282673,
          "lon": 7.3268794
        },
        {
          "lat": 45.8282727,
          "lon": 7.3268797
        },
        {
          "lat": 45.8282778,
          "lon": 7.3268787
        },
        {
          "lat": 45.8282827,
          "lon": 7.3268764
        },
        {
          "lat": 45.8282872,
          "lon": 7.3268724
        },
        {
          "lat": 45.8282914,
          "lon": 7.3268667
        },
        {
          "lat": 45.8283,
          "lon": 7.3268459
        },
        {
          "lat": 45.828304,
          "lon": 7.3268408
        },
        {
          "lat": 45.8283122,
          "lon": 7.3268351
        },
        {
          "lat": 45.8283178,
          "lon": 7.3268325
        }
      ],
      "tags": {
        "access": "customers",
        "leisure": "swimming_pool"
      }
    },
    {
      "type": "way",
      "id": 548355579,
      "bounds": {
        "minlat": 45.7623076,
        "minlon": 6.9878158,
        "maxlat": 45.7623709,
        "maxlon": 6.9879392
      },
      "nodes": [
        5297545381,
        5297545367,
        5297545366,
        5297545365,
        5297545364,
        5297545380,
        5297545381
      ],
      "geometry": [
        {
          "lat": 45.7623622,
          "lon": 6.9878158
        },
        {
          "lat": 45.7623218,
          "lon": 6.9878361
        },
        {
          "lat": 45.7623076,
          "lon": 6.9878674
        },
        {
          "lat": 45.7623175,
          "lon": 6.9879236
        },
        {
          "lat": 45.7623338,
          "lon": 6.9879392
        },
        {
          "lat": 45.7623709,
          "lon": 6.9879361
        },
        {
          "lat": 45.7623622,
          "lon": 6.9878158
        }
      ],
      "tags": {
        "leisure": "swimming_pool"
      }
    },
    {
      "type": "way",
      "id": 560012545,
      "bounds": {
        "minlat": 45.7204822,
        "minlon": 7.4955618,
        "maxlat": 45.7211564,
        "maxlon": 7.496286
      },
      "nodes": [
        5400675409,
        5400675408,
        5400675407,
        5400675406,
        5400675405,
        5400675404,
        5400675403,
        5400675402,
        5400675401,
        5400675409
      ],
      "geometry": [
        {
          "lat": 45.7204822,
          "lon": 7.495755
        },
        {
          "lat": 45.7205628,
          "lon": 7.4955618
        },
        {
          "lat": 45.7207369,
          "lon": 7.4957067
        },
        {
          "lat": 45.7209972,
          "lon": 7.495932
        },
        {
          "lat": 45.7211564,
          "lon": 7.4961117
        },
        {
          "lat": 45.7210028,
          "lon": 7.496286
        },
        {
          "lat": 45.7208605,
          "lon": 7.4961117
        },
        {
          "lat": 45.7207107,
          "lon": 7.4959937
        },
        {
          "lat": 45.7205796,
          "lon": 7.4958837
        },
        {
          "lat": 45.7204822,
          "lon": 7.495755
        }
      ],
      "tags": {
        "area": "yes",
        "climbing:sport": "yes",
        "name": "Palestra di arrampicata sportiva",
        "sport": "climbing"
      }
    },
    {
      "type": "way",
      "id": 627711219,
      "bounds": {
        "minlat": 45.7625619,
        "minlon": 6.9856421,
        "maxlat": 45.7626305,
        "maxlon": 6.9857496
      },
      "nodes": [
        5925897539,
        5925897538,
        5925897537,
        5925897536,
        5925897539
      ],
      "geometry": [
        {
          "lat": 45.7625619,
          "lon": 6.9856714
        },
        {
          "lat": 45.7625882,
          "lon": 6.9857496
        },
        {
          "lat": 45.7626305,
          "lon": 6.9857203
        },
        {
          "lat": 45.7626042,
          "lon": 6.9856421
        },
        {
          "lat": 45.7625619,
          "lon": 6.9856714
        }
      ],
      "tags": {
        "access": "customers",
        "bath:type": "thermal",
        "leisure": "swimming_pool",
        "location": "outdoor"
      }
    },
    {
      "type": "way",
      "id": 627711220,
      "bounds": {
        "minlat": 45.7620612,
        "minlon": 6.9859495,
        "maxlat": 45.7621037,
        "maxlon": 6.9860125
      },
      "nodes": [
        5925897549,
        5925897547,
        5925897546,
        5925897545,
        5925897544,
        5925897548,
        5925897543,
        5925897542,
        5925897541,
        5925897540,
        5925897549
      ],
      "geometry": [
        {
          "lat": 45.7620612,
          "lon": 6.985973
        },
        {
          "lat": 45.7620619,
          "lon": 6.9859924
        },
        {
          "lat": 45.7620705,
          "lon": 6.9860075
        },
        {
          "lat": 45.7620837,
          "lon": 6.9860125
        },
        {
          "lat": 45.7620964,
          "lon": 6.9860055
        },
        {
          "lat": 45.7621037,
          "lon": 6.9859891
        },
        {
          "lat": 45.762103,
          "lon": 6.9859696
        },
        {
          "lat": 45.7620944,
          "lon": 6.9859545
        },
        {
          "lat": 45.7620812,
          "lon": 6.9859495
        },
        {
          "lat": 45.7620685,
          "lon": 6.9859566
        },
        {
          "lat": 45.7620612,
          "lon": 6.985973
        }
      ],
      "tags": {
        "access": "customers",
        "bath:type": "thermal",
        "leisure": "swimming_pool",
        "location": "outdoor"
      }
    },
    {
      "type": "way",
      "id": 627711222,
      "bounds": {
        "minlat": 45.7617978,
        "minlon": 6.9857821,
        "maxlat": 45.7619545,
        "maxlon": 6.9860917
      },