{
  "version": 0.6,
  "generator": "Overpass API 0.7.62.11 87bfad18",
  "osm3s": {
    "timestamp_osm_base": "2026-05-05T09:01:14Z",
    "timestamp_areas_base": "2026-05-05T02:43:58Z",
    "copyright": "The data included in this document is from www.openstreetmap.org. The data is made available under ODbL."
  },
  "elements": [
    {
      "type": "node",
      "id": 247350388,
      "lat": 44.4539392,
      "lon": 8.9796863,
      "tags": {
        "amenity": "pub",
        "name": "Bar Alfredo",
        "opening_hours": "Mo-Sa 05:00-20:30+"
      }
    },
    {
      "type": "node",
      "id": 253311645,
      "lat": 44.4479664,
      "lon": 9.01493,
      "tags": {
        "amenity": "pub",
        "created_by": "JOSM"
      }
    },
    {
      "type": "node",
      "id": 260201705,
      "lat": 44.3947091,
      "lon": 8.9765086,
      "tags": {
        "addr:housenumber": "11 rosso",
        "addr:street": "Via Caprera",
        "amenity": "pub",
        "contact:phone": "+39 010 3993363",
        "name": "Hemingway's Pub",
        "website": "www.hemingwayspub.it/"
      }
    },
    {
      "type": "node",
      "id": 260203471,
      "lat": 44.4084313,
      "lon": 8.9341637,
      "tags": {
        "addr:housenumber": "76 rosso",
        "addr:street": "Vico della Casana",
        "amenity": "pub",
        "check_date": "2025-09-12",
        "name": "Britannia Pub",
        "wheelchair": "no"
      }
    },
    {
      "type": "node",
      "id": 260204217,
      "lat": 44.406277,
      "lon": 8.9325425,
      "tags": {
        "addr:housenumber": "6 rosso",
        "addr:street": "Piazza delle Erbe",
        "amenity": "bar",
        "check_date": "2025-09-20",
        "name": "Berto"
      }
    },
    {
      "type": "node",
      "id": 260204471,
      "lat": 44.405669,
      "lon": 8.9342005,
      "tags": {
        "amenity": "pub",
        "check_date": "2025-10-08",
        "name": "Il Barbarossa"
      }
    },
    {
      "type": "node",
      "id": 260205235,
      "lat": 44.3922795,
      "lon": 8.982815,
      "tags": {
        "amenity": "pub",
        "internet_access": "wlan",
        "internet_access:fee": "no",
        "internet_access:operator": "Vallicom",
        "internet_access:ssid": "SturlaM",
        "name": "Blunt Beach Club"
      }
    },
    {
      "type": "node",
      "id": 260207691,
      "lat": 44.4059012,
      "lon": 8.9315002,
      "tags": {
        "addr:housenumber": "36 rosso",
        "addr:street": "Via di San Donato",
        "amenity": "pub",
        "name": "Nuovo Le Corbusier"
      }
    },
    {
      "type": "node",
      "id": 260208170,
      "lat": 44.4076122,
      "lon": 8.9332229,
      "tags": {
        "addr:housenumber": "5",
        "addr:street": "Piazza Matteotti",
        "amenity": "pub",
        "check_date": "2025-08-29",
        "contact:phone": "+39 010 5959648",
        "name": "Mentelocale",
        "ref:vatin": "IT03881480101",
        "website": "https://www.mentelocale.it/",
        "wheelchair": "yes"
      }
    },
    {
      "type": "node",
      "id": 260209245,
      "lat": 44.4040498,
      "lon": 8.9421463,
      "tags": {
        "addr:housenumber": "45 rosso",
        "addr:street": "Via Cesarea",
        "amenity": "pub",
        "contact:phone": "+39 010 562577",
        "name": "Scassadiavoli",
        "operator": "Ferrari Ristorazioni srl",
        "ref:vatin": "IT01614700993"
      }
    },
    {
      "type": "node",
      "id": 260209732,
      "lat": 44.4136156,
      "lon": 8.9473741,
      "tags": {
        "amenity": "pub",
        "internet_access": "wlan",
        "internet_access:fee": "no",
        "internet_access:operator": "Vallicom",
        "internet_access:ssid": "giomma 5",
        "name": "Alle Volte"
      }
    },
    {
      "type": "node",
      "id": 260211133,
      "lat": 44.4020959,
      "lon": 8.9379018,
      "tags": {
        "addr:housenumber": "5 rosso",
        "addr:street": "Via Corsica",
        "amenity": "pub",
        "check_date": "2025-05-11",
        "name": "Mattoni Rossi"
      }
    },
    {
      "type": "node",
      "id": 260388039,
      "lat": 44.4093201,
      "lon": 8.9263142,
      "tags": {
        "amenity": "pub",
        "name": "Banano Tsunami",
        "wheelchair": "yes"
      }
    },
    {
      "type": "node",
      "id": 260399226,
      "lat": 44.405626,
      "lon": 8.9306349,
      "tags": {
        "amenity": "pub",
        "created_by": "Potlatch 0.8b",
        "name": "Taverna degli Alabardieri"
      }
    },
    {
      "type": "node",
      "id": 260429020,
      "lat": 44.3875471,
      "lon": 8.9979735,
      "tags": {
        "amenity": "pub",
        "name": "Il Galeone",
        "wheelchair": "limited"
      }
    },
    {
      "type": "node",
      "id": 260723820,
      "lat": 44.4039962,
      "lon": 8.9538943,
      "tags": {
        "addr:housenumber": "13 rosso",
        "addr:street": "Via Giovanni Tomaso Invrea",
        "amenity": "pub",
        "name": "Tartan Pub"
      }
    },
    {
      "type": "node",
      "id": 260768521,
      "lat": 44.409508,
      "lon": 8.9342272,
      "tags": {
        "amenity": "pub",
        "name": "Il Clan"
      }
    },
    {
      "type": "node",
      "id": 260768713,
      "lat": 44.4106214,
      "lon": 8.9333181,
      "tags": {
        "amenity": "pub",
        "created_by": "Potlatch 0.8b",
        "name": "Nuhar club"
      }
    },
    {
      "type": "node",
      "id": 262520022,
      "lat": 44.4031109,
      "lon": 8.944043,
      "tags": {
        "amenity": "pub",
        "name": "XO Food and Spirits Selection"
      }
    },
    {
      "type": "node",
      "id": 307798267,
      "lat": 44.4154862,
      "lon": 8.8376263,
      "tags": {
        "amenity": "pub",
        "name": "Beer Corner"
      }
    },
    {
      "type": "node",
      "id": 310414606,
      "lat": 44.1463563,
      "lon": 9.6547599,
      "tags": {
        "amenity": "bar",
        "check_date": "2025-07-30",
        "name": "Midi"
      }
    },
    {
      "type": "node",
      "id": 310450475,
      "lat": 44.407406,
      "lon": 8.9322588,
      "tags": {
        "addr:housenumber": "34 rosso",
        "addr:street": "Via Tommaso Reggio",
        "amenity": "nightclub",
        "name": "Louisiana Jazz Club",
        "tourism": "museum",
        "website": "https://www.italianjazzinstitute.com/",
        "wikidata": "Q18785499",
        "wikipedia": "it:Museo del jazz di Genova"
      }
    },
    {
      "type": "node",
      "id": 317621119,
      "lat": 44.3844331,
      "lon": 9.0324823,
      "tags": {
        "amenity": "pub",
        "name": "Wild Drink Cafè"
      }
    },
    {
      "type": "node",
      "id": 406510190,
      "lat": 44.4200653,
      "lon": 8.9676057,
      "tags": {
        "amenity": "bar",
        "name": "New Michelin",
        "outdoor_seating": "yes"
      }
    },
    {
      "type": "node",
      "id": 413351118,
      "lat": 44.3362265,
      "lon": 9.2635652,
      "tags": {
        "amenity": "nightclub",
        "check_date": "2025-07-31",
        "name": "Pietra di Luna",
        "note": "open on summer",
        "phone": "+39 347 6441909"
      }
    },
    {
      "type": "node",
      "id": 414576642,
      "lat": 44.4245923,
      "lon": 8.8116547,
      "tags": {
        "amenity": "nightclub",
        "name": "Tabarca Night Club"
      }
    },
    {
      "type": "node",
      "id": 420830588,
      "lat": 44.3352626,
      "lon": 9.2071939,
      "tags": {
        "amenity": "bar",
        "check_date": "2025-07-31",
        "name": "Sidi Bou"
      }
    },
    {
      "type": "node",
      "id": 425331675,
      "lat": 44.39557,
      "lon": 8.9477247,
      "tags": {
        "amenity": "bar"
      }
    },
    {
      "type": "node",
      "id": 428001789,
      "lat": 44.404185,
      "lon": 8.9571854,
      "tags": {
        "amenity": "pub",
        "name": "Caledonian Pub"
      }
    },
    {
      "type": "node",
      "id": 440629894,
      "lat": 44.5261422,
      "lon": 9.3859911,
      "tags": {
        "amenity": "bar",
        "name": "Bar degli amici"
      }
    },
    {
      "type": "node",
      "id": 443476329,
      "lat": 44.5457796,
      "lon": 9.4525307,
      "tags": {
        "amenity": "bar",
        "name": "la Baita"
      }
    },
    {
      "type": "node",
      "id": 479910790,
      "lat": 44.4020013,
      "lon": 8.9496621,
      "tags": {
        "amenity": "bar",
        "name": "Le Clab"
      }
    },
    {
      "type": "node",
      "id": 479920398,
      "lat": 44.4007374,
      "lon": 8.9488444,
      "tags": {
        "amenity": "bar",
        "name": "I Vescovini"
      }
    },
    {
      "type": "node",
      "id": 479924301,
      "lat": 44.3995023,
      "lon": 8.9480494,
      "tags": {
        "addr:housenumber": "93r",
        "addr:street": "Via della Libertà",
        "amenity": "bar",
        "name": "Caffetteria Maddaloni"
      }
    },
    {
      "type": "node",
      "id": 479936738,
      "lat": 44.3977443,
      "lon": 8.9496893,
      "tags": {
        "addr:housenumber": "7 rosso",
        "addr:street": "Via Antonio Cecchi",
        "amenity": "nightclub",
        "name": "Discoteca Cezanne",
        "website": "http://www.cezannedisco.it/",
        "wheelchair": "limited"
      }
    },
    {
      "type": "node",
      "id": 501784135,
      "lat": 44.4073727,
      "lon": 8.9534802,
      "tags": {
        "amenity": "bar",
        "name": "Oberti"
      }
    },
    {
      "type": "node",
      "id": 503412758,
      "lat": 44.3563894,
      "lon": 9.2118523,
      "tags": {
        "amenity": "bar",
        "name": "Bar Nostromo"
      }
    },
    {
      "type": "node",
      "id": 503412774,
      "lat": 44.3549499,
      "lon": 9.2114491,
      "tags": {
        "amenity": "bar",
        "name": "Bar Isterika"
      }
    },
    {
      "type": "node",
      "id": 504657827,
      "lat": 44.4062653,
      "lon": 8.9318623,
      "tags": {
        "amenity": "bar",
        "name": "La Cialtroneria"
      }
    },
    {
      "type": "node",
      "id": 504657840,
      "lat": 44.4079706,
      "lon": 8.9292841,
      "tags": {
        "amenity": "nightclub",
        "name": "Lucrezia social bar"
      }
    },
    {
      "type": "node",
      "id": 505063816,
      "lat": 44.3933382,
      "lon": 8.9516193,
      "tags": {
        "amenity": "nightclub",
        "name": "Mako",
        "url": "http://www.makogenova.com/"
      }
    },
    {
      "type": "node",
      "id": 505774040,
      "lat": 44.3950217,
      "lon": 8.9664548,
      "tags": {
        "addr:city": "Genova",
        "addr:housenumber": "3",
        "addr:postcode": "16145",
        "addr:street": "Via Lauro De Bosis",
        "air_conditioning": "yes",
        "amenity": "bar",
        "microbrewery": "no",
        "name": "Bar Ferrari",
        "outdoor_seating": "yes",
        "payment:bancomat": "yes",
        "payment:contactless": "yes",
        "payment:credit_cards": "yes",
        "payment:debit_cards": "yes",
        "phone": "+39 010 363457",
        "smoking": "no"
      }
    },
    {
      "type": "node",
      "id": 506626158,
      "lat": 44.4115814,
      "lon": 8.8901611,
      "tags": {
        "addr:housenumber": "13 rosso",
        "addr:street": "Via Alfredo Carzino",
        "amenity": "nightclub",
        "contact:instagram": "virgodiscoclub",
        "lgbtq": "welcome",
        "live_music": "yes",
        "name": "Virgo Disco Club",
        "website": "http://www.virgoclub.com/"
      }
    },
    {
      "type": "node",
      "id": 524074409,
      "lat": 44.4117231,
      "lon": 8.9544168,
      "tags": {
        "addr:housenumber": "97 rosso",
        "addr:postcode": "16142",
        "addr:street": "Corso Galliera",
        "amenity": "pub",
        "name": "Il Dado errante Ludo pub"
      }
    },
    {
      "type": "node",
      "id": 530667520,
      "lat": 44.4110799,
      "lon": 8.9386796,
      "tags": {
        "amenity": "pub",
        "name": "Beautiful Looser"
      }
    },
    {
      "type": "node",
      "id": 539099205,
      "lat": 44.4151028,
      "lon": 8.9297018,
      "tags": {
        "addr:housenumber": "8 rosso",
        "addr:street": "Piazza del Carmine",
        "amenity": "bar",
        "name": "8 Rosso"
      }
    },
    {
      "type": "node",
      "id": 601477591,
      "lat": 44.310801,
      "lon": 8.4775416,
      "tags": {
        "amenity": "bar",
        "check_date": "2025-04-03",
        "name": "Cult Cafè"
      }
    },
    {
      "type": "node",
      "id": 602511005,
      "lat": 44.3090505,
      "lon": 8.4808171,
      "tags": {
        "addr:city": "Savona",
        "addr:country": "IT",
        "addr:housenumber": "104r",
        "addr:postcode": "17100",
        "addr:street": "Via Pietro Paleocapa",
        "amenity": "bar",
        "check_date": "2025-01-13",
        "name": "Bar Reposi",
        "phone": "+39 019 2212929",
        "wheelchair": "no"
      }
    },
    {
      "type": "node",
      "id": 628979549,
      "lat": 44.3911053,
      "lon": 8.9888389,
      "tags": {
        "amenity": "pub",
        "name": "Bagni Liggia beach"
      }
    },
    {
      "type": "node",
      "id": 629381735,
      "lat": 44.3611403,
      "lon": 9.134876,
      "tags": {
        "amenity": "bar",
        "name": "Bagni Marisa"
      }
    },
    {
      "type": "node",
      "id": 631975116,
      "lat": 44.4270276,
      "lon": 8.826559,
      "tags": {
        "amenity": "pub",
        "check_date": "2026-01-04",
        "name": "irish pub Molly Malone"
      }
    },
    {
      "type": "node",
      "id": 632872119,
      "lat": 44.4240635,
      "lon": 8.8525596,
      "tags": {
        "amenity": "pub",
        "name": "Tumbler",
        "wheelchair": "yes"
      }
    },
    {
      "type": "node",
      "id": 665513781,
      "lat": 44.3730266,
      "lon": 9.105281,
      "tags": {
        "addr:housenumber": "1",
        "addr:street": "Via Giuseppe Garibaldi",
        "amenity": "bar",
        "contact:phone": "+39 0185 700907",
        "name": "Bar Crovetto"
      }
    },
    {
      "type": "node",
      "id": 668840495,
      "lat": 44.4182132,
      "lon": 8.9620499,
      "tags": {
        "amenity": "bar",
        "name": "Blue ice"
      }
    },
    {
      "type": "node",
      "id": 668840506,
      "lat": 44.4189702,
      "lon": 8.9638869,
      "tags": {
        "amenity": "bar",
        "name": "Trattoria Ligure express"
      }
    },
    {
      "type": "node",
      "id": 672952611,
      "lat": 44.3433625,
      "lon": 9.1704708,
      "tags": {
        "addr:street": "Via Franco Molfino",
        "amenity": "bar",
        "name": "Bar Nicco",
        "opening_hours": "Mo-Su 08:00-18:00"
      }
    },
    {
      "type": "node",
      "id": 673402568,
      "lat": 44.3991491,
      "lon": 8.9900233,
      "tags": {
        "amenity": "bar",
        "name": "Bar Saverio's Angels"
      }
    },
    {
      "type": "node",
      "id": 674857826,
      "lat": 44.3946939,
      "lon": 8.9811485,
      "tags": {
        "amenity": "bar",
        "name": "Tiburon Cafè"
      }
    },
    {
      "type": "node",
      "id": 677416366,
      "lat": 44.4161694,
      "lon": 8.9575934,
      "tags": {
        "addr:housenumber": "415 rosso",
        "addr:street": "Corso Sardegna",
        "amenity": "bar",
        "contact:phone": "+39 010 884961",
        "name": "Bar Galileo",
        "operator": "Bar Galileo sas",
        "ref:vatin": "IT01520580992"
      }
    },
    {
      "type": "node",
      "id": 679388674,
      "lat": 44.3945797,
      "lon": 8.9488463,
      "tags": {
        "amenity": "nightclub",
        "name": "Discoteca Time"
      }
    },
    {
      "type": "node",
      "id": 682198077,
      "lat": 44.4074041,
      "lon": 8.9578156,
      "tags": {
        "amenity": "bar",
        "check_date": "2025-07-20",
        "name": "Bar La Italia",
        "opening_hours": "Mo-Sa 12:00-14:30,19:00-23:00"
      }
    },
    {
      "type": "node",
      "id": 691922114,
      "lat": 44.537017,
      "lon": 8.6991705,
      "tags": {
        "amenity": "bar",
        "name": "Bar Moderno"
      }
    },
    {
      "type": "node",
      "id": 708673604,
      "lat": 44.3983995,
      "lon": 8.946874,
      "tags": {
        "addr:housenumber": "77",
        "addr:postcode": "16129",
        "addr:street": "Via Antonio Cecchi",
        "amenity": "bar",
        "check_date": "2026-04-04",
        "check_date:opening_hours": "2026-04-04",
        "cuisine": "bagel;breakfast;cake;coffee_shop;diner;donut;ice_cream",
        "level": "0",
        "name": "Caffetteria Barberis",
        "opening_hours": "Mo-Sa 06:30-20:30; Su 07:30-20:30",
        "phone": "010586884"
      }
    },
    {
      "type": "node",
      "id": 710918492,
      "lat": 44.3984119,
      "lon": 8.953882,
      "tags": {
        "amenity": "pub",
        "name": "Planet"
      }
    },
    {
      "type": "node",
      "id": 711927032,
      "lat": 44.4117371,
      "lon": 8.887132,
      "tags": {
        "amenity": "bar",
        "name": "Il Portico"
      }
    },
    {
      "type": "node",
      "id": 714896161,
      "lat": 44.4019736,
      "lon": 8.9426968,
      "tags": {
        "addr:housenumber": "77 rosso",
        "addr:street": "Via Brigata Liguria",
        "amenity": "bar",
        "name": "Perri's Cafè"
      }
    },
    {
      "type": "node",
      "id": 727774998,
      "lat": 44.329176,
      "lon": 9.2149524,
      "tags": {
        "amenity": "bar",
        "check_date": "2025-07-31",
        "name": "Tortuga Snack Bar"
      }
    },
    {
      "type": "node",
      "id": 727775006,
      "lat": 44.3326,
      "lon": 9.2139452,
      "tags": {
        "amenity": "bar",
        "check_date": "2025-07-31",
        "name": "Il Vernissage"
      }
    },
    {
      "type": "node",
      "id": 729565562,
      "lat": 44.611886,
      "lon": 8.9538183,
      "tags": {
        "amenity": "bar"
      }
    },
    {
      "type": "node",
      "id": 730790368,
      "lat": 44.405856,
      "lon": 8.9362419,
      "tags": {
        "addr:housenumber": "26 rosso",
        "addr:street": "Via Ceccardo Roccatagliata Ceccardi",
        "amenity": "bar",
        "check_date": "2025-10-07",
        "name": "Bar Corallo",
        "ref:vatin": "IT02320400993",
        "website": "https://www.barcorallogenova.com/"
      }
    },
    {
      "type": "node",
      "id": 730852356,
      "lat": 44.4040134,
      "lon": 8.9323144,
      "tags": {
        "amenity": "bar",
        "name": "La Giostra"
      }
    },
    {
      "type": "node",
      "id": 730852369,
      "lat": 44.4025078,
      "lon": 8.935227,
      "tags": {
        "addr:housenumber": "7 rosso",
        "addr:street": "Via Innocenzo Quarto",
        "amenity": "bar",
        "check_date": "2025-11-19",
        "name": "Blanco",
        "outdoor_seating": "yes",
        "website": "https://www.blancogenova.com/"
      }
    },
    {
      "type": "node",
      "id": 732736007,
      "lat": 44.4063742,
      "lon": 8.9707217,
      "tags": {
        "addr:housenumber": "4",
        "addr:street": "Via Antonio Pastore",
        "amenity": "bar",
        "check_date": "2025-07-15",
        "name": "Mentelocale"
      }
    },
    {
      "type": "node",
      "id": 735093695,
      "lat": 44.2728802,
      "lon": 9.3967855,
      "tags": {
        "amenity": "bar",
        "check_date": "2025-07-31",
        "name": "Bermuda Bar",
        "wheelchair": "limited"
      }
    },
    {
      "type": "node",
      "id": 735149509,
      "lat": 44.3204646,
      "lon": 9.2133486,
      "tags": {
        "amenity": "bar",
        "name": "Il Molo Beach Bar"
      }
    },
    {
      "type": "node",
      "id": 745407556,
      "lat": 43.880447,
      "lon": 7.7737786,
      "tags": {
        "amenity": "pub"
      }
    },
    {
      "type": "node",
      "id": 748288515,
      "lat": 44.4110013,
      "lon": 8.8899497,
      "tags": {
        "amenity": "bar",
        "check_date": "2026-03-28",
        "name": "Bar Teatro"
      }
    },
    {
      "type": "node",
      "id": 748288522,
      "lat": 44.4103876,
      "lon": 8.8912839,
      "tags": {
        "amenity": "bar",
        "check_date": "2026-03-28",
        "name": "Bambocchia Cafè"
      }
    },
    {
      "type": "node",
      "id": 765324005,
      "lat": 44.3486364,
      "lon": 9.2323596,
      "tags": {
        "amenity": "bar",
        "name": "La Garibalda"
      }
    },
    {
      "type": "node",
      "id": 768223870,
      "lat": 44.3524719,
      "lon": 9.2340787,
      "tags": {
        "amenity": "bar",
        "name": "Zino&Zino"
      }
    },
    {
      "type": "node",
      "id": 768740927,
      "lat": 44.4622032,
      "lon": 8.8895211,
      "tags": {
        "amenity": "bar",
        "name": "Società Operaia Cattolica"
      }
    },
    {
      "type": "node",
      "id": 772927202,
      "lat": 44.3152333,
      "lon": 9.3299845,
      "tags": {
        "amenity": "bar"
      }
    },
    {
      "type": "node",
      "id": 783330397,
      "lat": 44.395456,
      "lon": 8.9756383,
      "tags": {
        "amenity": "bar",
        "name": "Bar Pasticceria Panarello",
        "opening_hours": "Mo-Su 08:00-19:30"
      }
    },
    {
      "type": "node",
      "id": 793237264,
      "lat": 44.4792603,
      "lon": 8.4896397,
      "tags": {
        "addr:housenumber": "38",
        "addr:street": "Via Giambattista Badano",
        "amenity": "bar",
        "name": "Bar Gina",
        "outdoor_seating": "yes",
        "phone": "+39 019 724280",
        "ref:vatin": "IT01053670095",
        "wheelchair": "yes"
      }
    },
    {
      "type": "node",
      "id": 841737288,
      "lat": 44.4011755,
      "lon": 8.9387276,
      "tags": {
        "amenity": "bar",
        "name": "La Gatta Nera"
      }
    },
    {
      "type": "node",
      "id": 843376320,
      "lat": 44.0743345,
      "lon": 9.7953651,
      "tags": {
        "amenity": "bar",
        "name": "Bar i 4 Venti"
      }
    },
    {
      "type": "node",
      "id": 849980356,
      "lat": 44.5453738,
      "lon": 9.1751326,
      "tags": {
        "amenity": "bar",
        "name": "Bar Mangini"
      }
    },
    {
      "type": "node",
      "id": 880840621,
      "lat": 44.4091358,
      "lon": 8.9314476,
      "tags": {
        "amenity": "bar",
        "name": "da Cicci"
      }
    },
    {
      "type": "node",
      "id": 881203465,
      "lat": 44.4097243,
      "lon": 8.9377058,
      "tags": {
        "addr:city": "Genova",
        "addr:country": "IT",
        "addr:housenumber": "3 rosso",
        "addr:place": "Portoria",
        "addr:postcode": "16121",
        "addr:street": "Piazza Corvetto",
        "amenity": "bar",
        "historic": "yes",
        "name": "Mangini",
        "opening_hours": "Tu-Su 07:30-20:30",
        "payment:cash": "yes",
        "phone": "+39 010 564013",
        "ref:vatin": "IT00166430991",
        "shop": "pastry",
        "wheelchair": "limited"
      }
    },
    {
      "type": "node",
      "id": 882425354,
      "lat": 44.4172081,
      "lon": 8.9104365,
      "tags": {
        "addr:housenumber": "107 rosso",
        "addr:street": "Via Venezia",
        "amenity": "nightclub",
        "name": "Il Mondo Night Pub"
      }
    },
    {
      "type": "node",
      "id": 882987046,
      "lat": 44.4193511,
      "lon": 8.9150489,
      "tags": {
        "amenity": "bar",
        "name": "Caffè della Piazza"
      }
    },
    {
      "type": "node",
      "id": 888875721,
      "lat": 44.4069086,
      "lon": 8.9335308,
      "tags": {
        "addr:housenumber": "10 rosso",
        "addr:street": "Piazza Raffaele De Ferrari",
        "amenity": "bar",
        "check_date": "2025-08-29",
        "name": "Bar La Superba"
      }
    },
    {
      "type": "node",
      "id": 888875749,
      "lat": 44.4068036,
      "lon": 8.9305947,
      "tags": {
        "addr:housenumber": "54 rosso",
        "addr:street": "Via dei Giustiniani",
        "amenity": "pub",
        "microbrewery": "yes",
        "name": "A Rumènta",
        "website": "http://www.rumenta.com/"
      }
    },
    {
      "type": "node",
      "id": 888875760,
      "lat": 44.4065995,
      "lon": 8.9285753,
      "tags": {
        "addr:housenumber": "3 rosso",
        "addr:street": "Vico di San Cosimo",
        "amenity": "pub",
        "name": "Zaccaria"
      }
    },
    {
      "type": "node",
      "id": 888875786,
      "lat": 44.4070624,
      "lon": 8.932161,
      "tags": {
        "addr:housenumber": "11 rosso",
        "addr:street": "Piazza Giacomo Matteotti",
        "amenity": "bar",
        "name": "Capitan Baliano"
      }
    },
    {
      "type": "node",
      "id": 888875806,
      "lat": 44.4065841,
      "lon": 8.9290371,
      "tags": {
        "amenity": "pub",
        "name": "New White Rabbit"
      }
    },
    {
      "type": "node",
      "id": 888875844,
      "lat": 44.4061671,
      "lon": 8.9307755,
      "tags": {
        "addr:housenumber": "73 rosso",
        "addr:street": "Piazza San Bernardo",
        "amenity": "pub",
        "historic": "yes",
        "name": "Cantine Moretti"
      }
    },
    {
      "type": "node",
      "id": 890431190,
      "lat": 44.4191012,
      "lon": 8.914536,
      "tags": {
        "amenity": "bar",
        "name": "Bar La Sosta"
      }
    },
    {
      "type": "node",
      "id": 894095834,
      "lat": 44.4066568,
      "lon": 8.9324317,
      "tags": {
        "addr:street": "Via di Canneto il Lungo",
        "amenity": "bar",
        "name": "Il Quinto quarto"
      }
    },
    {
      "type": "node",
      "id": 897271264,
      "lat": 44.4071694,
      "lon": 8.9424803,
      "tags": {
        "amenity": "bar",
        "check_date": "2025-01-11",
        "name": "Maiolica"
      }
    },
    {
      "type": "node",
      "id": 897271266,
      "lat": 44.4062446,
      "lon": 8.9401978,
      "tags": {
        "amenity": "bar",
        "check_date": "2023-06-10",
        "name": "Dom Cafè",
        "wheelchair": "limited"
      }
    },
    {
      "type": "node",
      "id": 897271271,
      "lat": 44.4066736,
      "lon": 8.9444543,
      "tags": {
        "addr:housenumber": "18 rosso",
        "addr:street": "Via San Vincenzo",
        "amenity": "bar",
        "check_date": "2025-09-26",
        "contact:phone": "+39 010 540245",
        "name": "Bar Verdi"
      }
    },
    {
      "type": "node",
      "id": 898943359,
      "lat": 44.4038604,
      "lon": 8.9423208,
      "tags": {
        "amenity": "bar",
        "name": "Barravento"
      }
    },
    {
      "type": "node",
      "id": 898943363,
      "lat": 44.4039495,
      "lon": 8.9419542,
      "tags": {
        "amenity": "bar",
        "name": "Malta Caffè"
      }
    },
    {
      "type": "node",
      "id": 898943364,
      "lat": 44.4037844,
      "lon": 8.9419205,
      "tags": {
        "amenity": "bar",
        "name": "Cocktails & Dreams"
      }
    },
    {
      "type": "node",
      "id": 898943367,
      "lat": 44.4046263,
      "lon": 8.9415442,
      "tags": {
        "amenity": "bar",
        "name": "ManicomiCafè"
      }
    },
    {
      "type": "node",
      "id": 898943370,
      "lat": 44.4086822,
      "lon": 8.9359506,
      "tags": {
        "addr:housenumber": "29 rosso",
        "addr:street": "Galleria Giuseppe Mazzini",
        "amenity": "bar",
        "contact:phone": "+39 010 592400",
        "name": "Bar Gallery",
        "opening_hours": "Mo-Sa 07:30-19:00"
      }
    },
    {
      "type": "node",
      "id": 898943377,
      "lat": 44.4092039,
      "lon": 8.9371394,
      "tags": {
        "addr:housenumber": "79 rosso",
        "addr:street": "Galleria Giuseppe Mazzini",
        "amenity": "bar",
        "check_date": "2025-10-11",
        "name": "Caffetteria Bar Mazzini",
        "opening_hours": "Mo-Fr 06:00-20:30; Sa 07:00-20:30"
      }
    },
    {
      "type": "node",
      "id": 898943384,
      "lat": 44.4093005,
      "lon": 8.9370264,
      "tags": {
        "addr:housenumber": "74 rosso",
        "addr:street": "Galleria Giuseppe Mazzini",
        "amenity": "bar",
        "check_date": "2025-09-18",
        "contact:phone": "+39 010 8606026",
        "name": "Bar Galleria",
        "opening_hours": "Mo-Fr 07:00-20:30"
      }
    },
    {
      "type": "node",
      "id": 899468454,
      "lat": 44.4246651,
      "lon": 8.9264537,
      "tags": {
        "amenity": "bar",
        "name": "Bar Byblo's"
      }
    },
    {
      "type": "node",
      "id": 900715080,
      "lat": 44.4120648,
      "lon": 8.9698528,
      "tags": {
        "amenity": "bar",
        "name": "I 2 Angeli"
      }
    },
    {
      "type": "node",
      "id": 904089629,
      "lat": 44.3970907,
      "lon": 8.9456671,
      "tags": {
        "amenity": "bar"
      }
    },
    {
      "type": "node",
      "id": 911863098,
      "lat": 44.402711,
      "lon": 8.9408489,
      "tags": {
        "amenity": "bar",
        "name": "Bricco Bar"
      }
    },
    {
      "type": "node",
      "id": 911863100,
      "lat": 44.4022543,
      "lon": 8.9411205,
      "tags": {
        "amenity": "bar",
        "name": "Il volo Cafè"
      }
    },
    {
      "type": "node",
      "id": 911863120,
      "lat": 44.4028675,
      "lon": 8.9432105,
      "tags": {
        "amenity": "bar",
        "check_date": "2025-10-13",
        "name": "Bar degli Aperitivi",
        "outdoor_seating": "yes"
      }
    },
    {
      "type": "node",
      "id": 912018197,
      "lat": 44.4072691,
      "lon": 8.9357529,
      "tags": {
        "amenity": "bar",
        "outdoor_seating": "yes"
      }
    },
    {
      "type": "node",
      "id": 912018226,
      "lat": 44.4131664,
      "lon": 8.9326971,
      "tags": {
        "amenity": "bar",
        "name": "Babylon Cafè"
      }
    },
    {
      "type": "node",
      "id": 912018250,
      "lat": 44.4087791,
      "lon": 8.9345443,
      "tags": {
        "addr:housenumber": "20 rosso",
        "addr:street": "Via Venticinque Aprile",
        "amenity": "bar",
        "check_date": "2025-09-18",
        "contact:phone": "+39 010 2474325",
        "name": "BarUffa",
        "ref:vatin": "IT01145370993"
      }
    },
    {
      "type": "node",
      "id": 912113102,
      "lat": 44.4036369,
      "lon": 8.9431857,
      "tags": {
        "amenity": "bar"
      }
    },
    {
      "type": "node",
      "id": 913507319,
      "lat": 44.4375518,
      "lon": 8.8952946,
      "tags": {
        "amenity": "bar",
        "name": "Bar al Gotto d'Oro"
      }
    },
    {
      "type": "node",
      "id": 913507345,
      "lat": 44.4376345,
      "lon": 8.8959557,
      "tags": {
        "amenity": "bar",
        "name": "Bar Il Ritrovo"
      }
    },
    {
      "type": "node",
      "id": 913563057,
      "lat": 44.4351793,
      "lon": 8.892737,
      "tags": {
        "amenity": "bar",
        "name": "Bar Ciacci"
      }
    },
    {
      "type": "node",
      "id": 915818221,
      "lat": 44.4133111,
      "lon": 8.934696,
      "tags": {
        "amenity": "bar",
        "check_date": "2025-09-20",
        "name": "Bar Caffaro"
      }
    },
    {
      "type": "node",
      "id": 939108948,
      "lat": 44.4026274,
      "lon": 8.9477689,
      "tags": {
        "addr:housenumber": "19 rosso",
        "addr:street": "Via Rivale",
        "amenity": "bar",
        "name": "Bar Boom",
        "outdoor_seating": "yes"
      }
    },
    {
      "type": "node",
      "id": 939108951,
      "lat": 44.4046791,
      "lon": 8.941561,
      "tags": {
        "amenity": "bar",
        "name": "Ermes Cafè"
      }
    },
    {
      "type": "node",
      "id": 939108953,
      "lat": 44.4042411,
      "lon": 8.9421984,
      "tags": {
        "amenity": "bar",
        "name": "Caffè Don Cola"
      }
    },
    {
      "type": "node",
      "id": 939108957,
      "lat": 44.4046569,
      "lon": 8.9417525,
      "tags": {
        "amenity": "bar",
        "name": "Bar gotti e panetti"
      }
    },
    {
      "type": "node",
      "id": 939108958,
      "lat": 44.4042421,
      "lon": 8.9424034,
      "tags": {
        "addr:housenumber": "42 rosso",
        "addr:street": "Via Cesarea",
        "amenity": "bar",
        "name": "Bar Elisir",
        "operator": "Bar De Ferrari snc",
        "ref:vatin": "IT01175080108"
      }
    },
    {
      "type": "node",
      "id": 939108959,
      "lat": 44.4030273,
      "lon": 8.9458975,
      "tags": {
        "amenity": "bar",
        "name": "Bar Vittoria"
      }
    },
    {
      "type": "node",
      "id": 939108960,
      "lat": 44.4034325,
      "lon": 8.9496916,
      "tags": {
        "amenity": "bar",
        "name": "Bar Pizzeria Centrale 2"
      }
    },
    {
      "type": "node",
      "id": 939401257,
      "lat": 44.3914353,
      "lon": 8.9653311,
      "tags": {
        "addr:housenumber": "11f rosso",
        "addr:street": "Corso Italia",
        "amenity": "bar",
        "name": "Bisù",
        "ref:vatin": "IT02750580991",
        "website": "https://bisugenova.it/"
      }
    },
    {
      "type": "node",
      "id": 945227208,
      "lat": 44.4063959,
      "lon": 8.9425418,
      "tags": {
        "amenity": "bar",
        "check_date": "2026-02-21",
        "name": "Mójate",
        "outdoor_seating": "yes"
      }
    },
    {
      "type": "node",
      "id": 945227210,
      "lat": 44.4059514,
      "lon": 8.9388911,
      "tags": {
        "addr:housenumber": "152 rosso",
        "addr:street": "Via Venti Settembre",
        "amenity": "bar",
        "check_date": "2025-04-06",
        "name": "Caffetteria Orefici",
        "outdoor_seating": "yes",
        "wheelchair": "limited"
      }
    },
    {
      "type": "node",
      "id": 945717672,
      "lat": 44.4168572,
      "lon": 8.9543431,
      "tags": {
        "amenity": "bar",
        "name": "Bar Ciak"
      }
    },
    {
      "type": "node",
      "id": 962055195,
      "lat": 44.4593759,
      "lon": 8.9009206,
      "tags": {
        "amenity": "bar",
        "name": "Bar Lo Spuntino della Stazione"
      }
    },
    {
      "type": "node",
      "id": 962055199,
      "lat": 44.4593809,
      "lon": 8.9013206,
      "tags": {
        "amenity": "bar",
        "name": "Bar Centro"
      }
    },
    {
      "type": "node",
      "id": 968677904,
      "lat": 44.4110443,
      "lon": 8.9343992,
      "tags": {
        "amenity": "bar",
        "check_date": "2025-10-03",
        "indoor_seating": "yes",
        "name": "Bar Au Cafè",
        "outdoor_seating": "no"
      }
    },
    {
      "type": "node",
      "id": 968929822,
      "lat": 44.4059254,
      "lon": 8.9445959,
      "tags": {
        "amenity": "bar",
        "check_date": "2025-10-10",
        "name": "Vip Bar"
      }
    },
    {
      "type": "node",
      "id": 968929832,
      "lat": 44.4060338,
      "lon": 8.9449012,
      "tags": {
        "amenity": "bar",
        "check_date": "2025-10-10",
        "name": "Bar Torrens"
      }
    },
    {
      "type": "node",
      "id": 968929841,
      "lat": 44.4060774,
      "lon": 8.9437234,
      "tags": {
        "amenity": "bar",
        "check_date": "2025-10-10",
        "name": "Bar Fratelli Bisi"
      }
    },
    {
      "type": "node",
      "id": 968944525,
      "lat": 44.4143646,
      "lon": 8.956729,
      "tags": {
        "amenity": "bar",
        "name": "Bar Aurora"
      }
    },
    {
      "type": "node",
      "id": 968944555,
      "lat": 44.4147595,
      "lon": 8.9569344,
      "tags": {
        "amenity": "bar",
        "name": "Bar del Corso"
      }
    },
    {
      "type": "node",
      "id": 969165786,
      "lat": 44.3270951,
      "lon": 8.5027587,
      "tags": {
        "amenity": "bar",
        "check_date": "2025-01-04",
        "name": "Caffé Testa",
        "wheelchair": "limited"
      }
    },
    {
      "type": "node",
      "id": 981348314,
      "lat": 44.4095176,
      "lon": 8.9329423,
      "tags": {
        "amenity": "bar",
        "check_date": "2025-10-02",
        "indoor_seating": "yes",
        "name": "Il Mugugno",
        "outdoor_seating": "yes"
      }
    },
    {
      "type": "node",
      "id": 991086510,
      "lat": 44.4131855,
      "lon": 8.9301038,
      "tags": {
        "addr:housenumber": "23 rosso",
        "addr:street": "Largo della Zecca",
        "amenity": "bar",
        "check_date": "2025-08-29",
        "name": "Cairoli Caffè"
      }
    },
    {
      "type": "node",
      "id": 992830654,
      "lat": 44.3966684,
      "lon": 8.9470692,
      "tags": {
        "amenity": "bar",
        "name": "Bisquit Cafè",
        "wheelchair": "limited"
      }
    },
    {
      "type": "node",
      "id": 992830664,
      "lat": 44.4031675,
      "lon": 8.9463186,
      "tags": {
        "amenity": "bar",
        "name": "Bar Gioiello"
      }
    },
    {
      "type": "node",
      "id": 999581877,
      "lat": 44.4086962,
      "lon": 8.9380919,
      "tags": {
        "amenity": "bar",
        "name": "Caffè del Vescovo"
      }
    },
    {
      "type": "node",
      "id": 1000222538,
      "lat": 44.4562168,
      "lon": 8.9784626,
      "tags": {
        "amenity": "bar"
      }
    },
    {
      "type": "node",
      "id": 1000222601,
      "lat": 44.4540402,
      "lon": 8.9773297,
      "tags": {
        "amenity": "bar",
        "name": "Nino di Riccardi Luca"
      }
    },
    {
      "type": "node",
      "id": 1000222640,
      "lat": 44.4534664,
      "lon": 8.9778995,
      "tags": {
        "amenity": "bar",
        "name": "Caffetteria 68R"
      }
    },
    {
      "type": "node",
      "id": 1012849125,
      "lat": 44.4068288,
      "lon": 8.9558242,
      "tags": {
        "amenity": "bar",
        "name": "Bar Mauri"
      }
    },
    {
      "type": "node",
      "id": 1012849149,
      "lat": 44.409494,
      "lon": 8.9669686,
      "tags": {
        "amenity": "bar",
        "check_date": "2025-07-01",
        "name": "Bar Luca's",
        "opening_hours": "12:00-14:00",
        "phone": "+39 010 508064"
      }
    },
    {
      "type": "node",
      "id": 1027897728,
      "lat": 44.4060612,
      "lon": 8.9327086,
      "tags": {
        "amenity": "pub",
        "name": "28 Erbe"
      }
    },
    {
      "type": "node",
      "id": 1027897729,
      "lat": 44.4060522,
      "lon": 8.9324613,
      "tags": {
        "addr:housenumber": "31 rosso",
        "addr:street": "Piazza delle Erbe",
        "amenity": "bar",
        "contact:phone": "+39 010 2466434",
        "name": "Gradisca Cafè",
        "operator": "Luisella Pes",
        "ref:vatin": "IT01350870992",
        "shop": "tobacco"
      }
    },
    {
      "type": "node",
      "id": 1112966373,
      "lat": 44.3810444,
      "lon": 9.0398731,
      "tags": {
        "amenity": "pub",
        "name": "Sehnor do Bonfim",
        "opening_hours": "PH,Mo-Su 16:00-04:00"
      }
    },
    {
      "type": "node",
      "id": 1112966661,
      "lat": 44.3805738,
      "lon": 9.0430119,
      "tags": {
        "amenity": "pub",
        "name": "New Chandra",
        "wheelchair": "no"
      }
    },
    {
      "type": "node",
      "id": 1117305781,
      "lat": 44.3841063,
      "lon": 9.0202733,
      "tags": {
        "amenity": "bar",
        "contact:phone": "+39 010 3725267",
        "name": "Gelateria Colombo",
        "outdoor_seating": "yes"
      }
    },
    {
      "type": "node",
      "id": 1119930991,
      "lat": 44.1956797,
      "lon": 9.5764289,
      "tags": {
        "amenity": "pub",
        "name": "Bar Ristorante Lorella"
      }
    },
    {
      "type": "node",
      "id": 1121721713,
      "lat": 44.4032638,
      "lon": 8.9460623,
      "tags": {
        "amenity": "bar",
        "name": "Caffetteria Gotti Rotti"
      }
    },
    {
      "type": "node",
      "id": 1126159940,
      "lat": 44.379732,
      "lon": 9.0684823,
      "tags": {
        "amenity": "pub",
        "name": "Il Vagabondo"
      }
    },
    {
      "type": "node",
      "id": 1126747861,
      "lat": 44.405698,
      "lon": 8.9357751,
      "tags": {
        "amenity": "bar",
        "check_date": "2025-10-07",
        "name": "Rio Bar"
      }
    },
    {
      "type": "node",
      "id": 1126747867,
      "lat": 44.4050657,
      "lon": 8.9353207,
      "tags": {
        "amenity": "bar",
        "name": "Tonitto"
      }
    },
    {
      "type": "node",
      "id": 1133646682,
      "lat": 44.403841,
      "lon": 8.9305536,
      "tags": {
        "amenity": "nightclub",
        "name": "261"
      }
    },
    {
      "type": "node",
      "id": 1133646684,
      "lat": 44.4043023,
      "lon": 8.932263,
      "tags": {
        "addr:housenumber": "30 rosso",
        "addr:street": "Piazza Sarzano",
        "amenity": "bar",
        "check_date": "2025-04-01",
        "indoor_seating": "yes",
        "name": "Bar Metropolitan Cafè",
        "outdoor_seating": "street",
        "payment:credit_cards": "yes",
        "payment:debit_cards": "yes",
        "website": "http://www.metropolitancafe.it",
        "wheelchair": "no"
      }
    },
    {
      "type": "node",
      "id": 1133646687,
      "lat": 44.4046183,
      "lon": 8.9338884,
      "tags": {
        "amenity": "pub",
        "name": "MacKenny Pub"
      }
    },
    {
      "type": "node",
      "id": 1133646697,
      "lat": 44.4040531,
      "lon": 8.9303751,
      "tags": {
        "addr:housenumber": "46 rosso",
        "addr:street": "Piazza Sarzano",
        "amenity": "nightclub",
        "check_date": "2025-04-01",
        "name": "Quaalude"
      }
    },
    {
      "type": "node",
      "id": 1133648780,
      "lat": 44.4076348,
      "lon": 8.930798,
      "tags": {
        "addr:housenumber": "63 rosso",
        "addr:street": "Via San Lorenzo",
        "amenity": "bar",
        "name": "Caffè del Duomo"
      }
    },
    {
      "type": "node",
      "id": 1156274938,
      "lat": 44.4128537,
      "lon": 8.8959278,
      "tags": {
        "amenity": "bar",
        "check_date": "2026-04-28",
        "name": "Bar Kent",
        "opening_hours": "Mo-Sa 06:00-20:00"
      }
    },
    {
      "type": "node",
      "id": 1156275109,
      "lat": 44.4129772,
      "lon": 8.8987129,
      "tags": {
        "amenity": "bar"
      }
    },
    {
      "type": "node",
      "id": 1164971538,
      "lat": 44.4054227,
      "lon": 8.9404348,
      "tags": {
        "amenity": "bar"
      }
    },
    {
      "type": "node",
      "id": 1164971607,
      "lat": 44.4054989,
      "lon": 8.9404109,
      "tags": {
        "amenity": "bar",
        "name": "Bar Green"
      }
    },
    {
      "type": "node",
      "id": 1164995526,
      "lat": 44.3776248,
      "lon": 9.0719332,
      "tags": {
        "addr:housenumber": "132",
        "addr:postcode": "16031",
        "addr:street": "Via Giuseppe Mazzini",
        "amenity": "bar",
        "cuisine": "italian;italian_pizza",
        "email": "justperuzzi@gmail.com",
        "level": "1",
        "name": "Just Peruzzi",
        "phone": "+39 010 347 0021",
        "website": "https://www.justperuzzi.it",
        "website:menu": "https://www.justperuzzi.com/menu/"
      }
    },
    {
      "type": "node",
      "id": 1164995538,
      "lat": 44.3781175,
      "lon": 9.0755004,
      "tags": {
        "amenity": "bar",
        "name": "Bar Speranza"
      }
    },
    {
      "type": "node",
      "id": 1164995550,
      "lat": 44.3783455,
      "lon": 9.0696335,
      "tags": {
        "amenity": "pub",
        "name": "Music Bar La Piazzetta"
      }
    },
    {
      "type": "node",
      "id": 1165435494,
      "lat": 44.4163843,
      "lon": 8.9549384,
      "tags": {
        "addr:housenumber": "63 rosso",
        "addr:street": "Corso Alessandro De Stefanis",
        "amenity": "bar",
        "check_date": "2025-10-24",
        "name": "deStefanis - Bar Pasticceria"
      }
    },
    {
      "type": "node",
      "id": 1165435599,
      "lat": 44.4063041,
      "lon": 8.958414,
      "tags": {
        "amenity": "bar",
        "name": "Aperihour zio Paperooga"
      }
    },
    {
      "type": "node",
      "id": 1171073588,
      "lat": 44.4060263,
      "lon": 8.9376939,
      "tags": {
        "addr:housenumber": "21 rosso",
        "addr:street": "Via alla Porta degli Archi",
        "amenity": "bar",
        "entrance": "yes",
        "foot": "yes",
        "name": "Bar Croissant"
      }
    },
    {
      "type": "node",
      "id": 1181174964,
      "lat": 44.4069658,
      "lon": 8.9653737,
      "tags": {
        "amenity": "bar",
        "check_date": "2025-05-01",
        "name": "Bottega del Caffè"
      }
    },
    {
      "type": "node",
      "id": 1229227423,
      "lat": 44.4013022,
      "lon": 8.9366739,
      "tags": {
        "amenity": "bar",
        "name": "Gelateria Bixio",
        "outdoor_seating": "yes"
      }
    },
    {
      "type": "node",
      "id": 1229541583,
      "lat": 44.4101776,
      "lon": 8.9389334,
      "tags": {
        "addr:housenumber": "45 rosso",
        "addr:street": "Via dei Santi Giacomo e Filippo",
        "amenity": "bar",
        "name": "Yami"
      }
    },
    {
      "type": "node",
      "id": 1240665129,
      "lat": 44.3611572,
      "lon": 8.5889181,
      "tags": {
        "amenity": "bar",
        "internet_access": "no",
        "name": "La Mola",
        "wheelchair": "yes"
      }
    },
    {
      "type": "node",
      "id": 1256899040,
      "lat": 44.5696937,
      "lon": 8.9465429,
      "tags": {
        "amenity": "bar",
        "name": "Bar Nin"
      }
    },
    {
      "type": "node",
      "id": 1260108078,
      "lat": 44.4201095,
      "lon": 8.9469635,
      "tags": {
        "amenity": "bar",
        "name": "Bar Tom & Jerry"
      }
    },
    {
      "type": "node",
      "id": 1261119870,
      "lat": 44.4927653,
      "lon": 9.3413823,
      "tags": {
        "amenity": "bar",
        "name": "Bar Copa Cabanne"
      }
    },
    {
      "type": "node",
      "id": 1263616472,
      "lat": 44.5474905,
      "lon": 9.4508527,
      "tags": {
        "amenity": "bar",
        "name": "Bar Leon d'Oro"
      }
    },
    {
      "type": "node",
      "id": 1272932330,
      "lat": 44.3923903,
      "lon": 8.9710402,
      "tags": {
        "amenity": "bar",
        "name": "Tonitto",
        "outdoor_seating": "yes"
      }
    },
    {
      "type": "node",
      "id": 1279780782,
      "lat": 44.4152181,
      "lon": 8.9547438,
      "tags": {
        "amenity": "bar"
      }
    },
    {
      "type": "node",
      "id": 1281380010,
      "lat": 44.4034632,
      "lon": 8.9542984,
      "tags": {
        "amenity": "bar",
        "check_date": "2025-10-14",
        "name": "Bar Lino",
        "outdoor_seating": "yes"
      }
    },
    {
      "type": "node",
      "id": 1288941519,
      "lat": 44.3876366,
      "lon": 8.997724,
      "tags": {
        "addr:housenumber": "1 rosso",
        "addr:street": "Via Quarto",
        "amenity": "bar",
        "contact:phone": "+39 010 3076563",
        "name": "Gelateria Priaruggia",
        "ref:vatin": "IT01808360992"
      }
    },
    {
      "type": "node",
      "id": 1315185362,
      "lat": 43.8078533,
      "lon": 7.6248724,
      "tags": {
        "amenity": "bar",
        "name": "Autoriparazioni Buelli"
      }
    },
    {
      "type": "node",
      "id": 1315185602,
      "lat": 43.8078107,
      "lon": 7.6250173,
      "tags": {
        "amenity": "bar"
      }
    },
    {
      "type": "node",
      "id": 1315971499,
      "lat": 43.8677184,
      "lon": 7.9320126,
      "tags": {
        "amenity": "bar"
      }
    },
    {
      "type": "node",
      "id": 1316071479,
      "lat": 43.852004,
      "lon": 7.9634467,
      "tags": {
        "amenity": "bar",
        "check_date": "2025-11-11",
        "name": "Emy bar"
      }
    },
    {
      "type": "node",
      "id": 1328510475,
      "lat": 44.1725267,
      "lon": 8.3539545,
      "tags": {
        "amenity": "pub",
        "name": "Zum alten Markt"
      }
    },
    {
      "type": "node",
      "id": 1333347567,
      "lat": 44.4402526,
      "lon": 8.8804425,
      "tags": {
        "amenity": "bar",
        "name": "Bar Spritz Santacruz"
      }
    },
    {
      "type": "node",
      "id": 1335722500,
      "lat": 44.5260196,
      "lon": 9.2483679,
      "tags": {
        "amenity": "bar"
      }
    },
    {
      "type": "node",
      "id": 1337152994,
      "lat": 44.1692441,
      "lon": 8.3443944,
      "tags": {
        "addr:housenumber": "75",
        "amenity": "bar",
        "name": "Deni Wine Bar"
      }
    },
    {
      "type": "node",
      "id": 1351231338,
      "lat": 44.4039329,
      "lon": 8.6783313,
      "tags": {
        "amenity": "bar",
        "name": "Il Chicco Rosa",
        "smoking": "no",
        "wheelchair": "no"
      }
    },
    {
      "type": "node",
      "id": 1352696446,
      "lat": 44.4044733,
      "lon": 8.6786502,
      "tags": {
        "addr:city": "Arenzano",
        "addr:housenumber": "5",
        "addr:postcode": "16011",
        "addr:street": "Via Rue",
        "amenity": "bar",
        "name": "gli s'fusi",
        "phone:delivery": "+39 33462308554; +39 338 9928932",
        "shop": "beverages",
        "smoking": "no",
        "wheelchair": "yes"
      }
    },
    {
      "type": "node",
      "id": 1362647590,
      "lat": 44.4024513,
      "lon": 8.6639141,
      "tags": {
        "amenity": "bar",
        "internet_access": "no",
        "name": "Bar Welcome",
        "opening_hours": "Mo-Fr 08:30-20:00",
        "smoking": "no",
        "tobacco": "yes",
        "wheelchair": "no"
      }
    },
    {
      "type": "node",
      "id": 1370020795,
      "lat": 44.4610908,
      "lon": 8.9020426,
      "tags": {
        "amenity": "bar",
        "name": "Bar Pasticceria Coloniali"
      }
    },
    {
      "type": "node",
      "id": 1380921330,
      "lat": 44.3421467,
      "lon": 8.5464837,
      "tags": {
        "addr:street": "Piazza Sisto IV",
        "amenity": "bar",
        "name": "Milano",
        "operator": "Raffaella Delussu",
        "phone": "+39 019 990091"
      }
    },
    {
      "type": "node",
      "id": 1381854882,
      "lat": 43.8526074,
      "lon": 7.963928,
      "tags": {
        "amenity": "bar",
        "check_date": "2025-11-11",
        "cuisine": "pizza",
        "name": "Peter Pan"
      }
    },
    {
      "type": "node",
      "id": 1390072658,
      "lat": 44.3404265,
      "lon": 8.543619,
      "tags": {
        "amenity": "pub",
        "name": "IntrAlcio"
      }
    },
    {
      "type": "node",
      "id": 1390072665,
      "lat": 44.3425695,
      "lon": 8.5476501,
      "tags": {
        "addr:city": "Varazze",
        "addr:housenumber": "5",
        "addr:street": "Via Quattro Novembre",
        "amenity": "bar",
        "note": "icecreams"
      }
    },
    {
      "type": "node",
      "id": 1390072670,
      "lat": 44.3417525,
      "lon": 8.5454731,
      "tags": {
        "amenity": "bar",
        "check_date": "2025-09-08",
        "name": "La Battigia"
      }
    },
    {
      "type": "node",
      "id": 1390072689,
      "lat": 44.3415687,
      "lon": 8.5453709,
      "tags": {
        "amenity": "bar"
      }
    },
    {
      "type": "node",
      "id": 1396732214,
      "lat": 44.3462056,
      "lon": 8.5526949,
      "tags": {
        "addr:street": "Piazza Assunta",
        "amenity": "bar",
        "name": "Carly Max",
        "note": "American Bar"
      }
    },
    {
      "type": "node",
      "id": 1396732217,
      "lat": 44.3459384,
      "lon": 8.5528129,
      "tags": {
        "amenity": "bar",
        "name": "Igloo",
        "note": "Gelateria"
      }
    },
    {
      "type": "node",
      "id": 1402782630,
      "lat": 43.8153883,
      "lon": 7.776136,
      "tags": {
        "amenity": "bar",
        "indoor_seating": "yes",
        "name": "Ristorante Flipper",
        "outdoor_seating": "yes"
      }
    },
    {
      "type": "node",
      "id": 1402792435,
      "lat": 44.2048583,
      "lon": 8.4160838,
      "tags": {
        "addr:housenumber": "17",
        "addr:street": "Corso Italia",
        "amenity": "bar",
        "name": "Bar Torino"
      }
    },
    {
      "type": "node",
      "id": 1426863154,
      "lat": 44.3943075,
      "lon": 8.9510518,
      "tags": {
        "amenity": "bar",
        "changing_table": "no",
        "indoor": "yes",
        "name": "New Bar",
        "opening_hours": "Mo-Sa 06:30-20:00; 06:00-06:30",
        "toilets:access": "customers",
        "wheelchair": "yes"
      }
    },
    {
      "type": "node",
      "id": 1426864638,
      "lat": 44.3951189,
      "lon": 8.9509306,
      "tags": {
        "amenity": "pub",
        "name": "carpe diem"
      }
    },
    {
      "type": "node",
      "id": 1431753647,
      "lat": 44.3944963,
      "lon": 8.9522753,
      "tags": {
        "amenity": "bar"
      }
    },
    {
      "type": "node",
      "id": 1435792075,
      "lat": 44.4813518,
      "lon": 8.9244342,
      "tags": {
        "amenity": "bar"
      }
    },
    {
      "type": "node",
      "id": 1438357489,
      "lat": 44.4156036,
      "lon": 8.9504473,
      "tags": {
        "addr:housenumber": "4 rosso",
        "addr:street": "Via Bobbio",
        "amenity": "bar",
        "check_date": "2025-08-25",
        "name": "Bar Pressing",
        "ref:vatin": "IT01585870999",
        "wheelchair": "yes"
      }
    },
    {
      "type": "node",
      "id": 1438357490,
      "lat": 44.4131836,
      "lon": 8.9516739,
      "tags": {
        "amenity": "bar",
        "name": "Bar Sportivo"
      }
    },
    {
      "type": "node",
      "id": 1438357497,
      "lat": 44.4075949,
      "lon": 8.9433714,
      "tags": {
        "amenity": "bar",
        "name": "Oia"
      }
    },
    {
      "type": "node",
      "id": 1438778176,
      "lat": 44.263564,
      "lon": 8.4477534,
      "tags": {
        "amenity": "bar"
      }
    },
    {
      "type": "node",
      "id": 1440957351,
      "lat": 44.4051266,
      "lon": 8.9491394,
      "tags": {
        "addr:housenumber": "69 rosso",
        "addr:street": "Via Giovanni Tomaso Invrea",
        "amenity": "bar",
        "name": "Caffè San Giorgio"
      }
    },
    {
      "type": "node",
      "id": 1440957352,
      "lat": 44.403308,
      "lon": 8.9557983,
      "tags": {
        "amenity": "bar",
        "name": "Bar Skipper"
      }
    },
    {
      "type": "node",
      "id": 1454894178,
      "lat": 44.4054581,
      "lon": 8.6884537,
      "tags": {
        "addr:city": "Arenzano",
        "addr:housenumber": "1",
        "addr:postcode": "16011",
        "addr:street": "Piazza Agostino Toso",
        "amenity": "bar",
        "fog": "21",
        "map": "1768",
        "name": "Il Kiosko",
        "wheelchair": "yes",
        "zcen2011": "3"
      }
    },
    {
      "type": "node",
      "id": 1454895158,
      "lat": 44.4037366,
      "lon": 8.6856027,
      "tags": {
        "addr:city": "Arenzano",
        "addr:housenumber": "126",
        "addr:postcode": "16011",
        "addr:street": "Corso Giacomo Matteotti",
        "amenity": "bar",
        "fog": "22",
        "map": "318",
        "name": "Bar Calcagno",
        "zcen2011": "10"
      }
    },
    {
      "type": "node",
      "id": 1458660504,
      "lat": 44.4156985,
      "lon": 8.8691731,
      "tags": {
        "amenity": "bar",
        "name": "Chicchi d'autore",
        "outdoor_seating": "yes"
      }
    },
    {
      "type": "node",
      "id": 1458660711,
      "lat": 44.4158833,
      "lon": 8.870573,
      "tags": {
        "amenity": "bar",
        "check_date": "2026-03-28",
        "name": "Bar Carpe Diem",
        "outdoor_seating": "yes"
      }
    },
    {
      "type": "node",
      "id": 1463002302,
      "lat": 44.4247917,
      "lon": 8.8173383,
      "tags": {
        "addr:city": "Genova",
        "addr:housenumber": "14 rosso",
        "addr:street": "Lungomare di Pegli",
        "amenity": "bar",
        "name": "Libeccio",
        "ref:vatin": "IT02478500990"
      }
    },
    {
      "type": "node",
      "id": 1463002312,
      "lat": 44.4245941,
      "lon": 8.8182785,
      "tags": {
        "addr:city": "Genova",
        "addr:street": "Lungomare di Pegli",
        "amenity": "bar",
        "name": "Bar Oasi del Mare"
      }
    },
    {
      "type": "node",
      "id": 1463002316,
      "lat": 44.424852,
      "lon": 8.8155077,
      "tags": {
        "amenity": "bar",
        "name": "Bar Pasticceria Amleto"
      }
    },
    {
      "type": "node",
      "id": 1463002372,
      "lat": 44.4248257,
      "lon": 8.8194754,
      "tags": {
        "addr:city": "Genova",
        "addr:street": "Lungomare di Pegli",
        "amenity": "bar"
      }
    },
    {
      "type": "node",
      "id": 1463002395,
      "lat": 44.4266203,
      "lon": 8.8164575,
      "tags": {
        "amenity": "bar"
      }
    },
    {
      "type": "node",
      "id": 1463002435,
      "lat": 44.4275656,
      "lon": 8.8195849,
      "tags": {
        "amenity": "bar",
        "name": "Christian bar pasticceria"
      }
    },
    {
      "type": "node",
      "id": 1463675587,
      "lat": 44.4051538,
      "lon": 8.6860455,
      "tags": {
        "amenity": "bar",
        "name": "Bar Lago Tana"
      }
    },
    {
      "type": "node",
      "id": 1463684677,
      "lat": 44.4029074,
      "lon": 8.685069,
      "tags": {
        "amenity": "bar",
        "name": "Giro di Bitta"
      }
    },
    {
      "type": "node",
      "id": 1463686645,
      "lat": 44.4034267,
      "lon": 8.6848759,
      "tags": {
        "amenity": "bar",
        "name": "Bar della Piazza"
      }
    },
    {
      "type": "node",
      "id": 1463693534,
      "lat": 44.4050448,
      "lon": 8.686668,
      "tags": {
        "amenity": "bar",
        "name": "BriBar"
      }
    },
    {
      "type": "node",
      "id": 1463694434,
      "lat": 44.4046052,
      "lon": 8.6863109,
      "tags": {
        "amenity": "bar",
        "name": "Il Vascello",
        "phone": "+39 347 7710464"
      }
    },
    {
      "type": "node",
      "id": 1463696160,
      "lat": 44.4045272,
      "lon": 8.6868578,
      "tags": {
        "amenity": "bar",
        "name": "Carlo Felice"
      }
    },
    {
      "type": "node",
      "id": 1463698045,
      "lat": 44.4033527,
      "lon": 8.6854645,
      "tags": {
        "addr:housenumber": "148",
        "addr:street": "Corso Giacomo Matteotti",
        "amenity": "bar",
        "name": "Bar Gelateria Serafino",
        "operator": "Vallarino Snc",
        "outdoor_seating": "yes",
        "ref:vatin": "IT01670930997",
        "toilets:wheelchair": "no",
        "wheelchair": "yes"
      }
    },
    {
      "type": "node",
      "id": 1463700230,
      "lat": 44.4032464,
      "lon": 8.6854004,
      "tags": {
        "amenity": "bar",
        "name": "Folkstudio",
        "phone": "+39 349 3421085"
      }
    },
    {
      "type": "node",
      "id": 1466961894,
      "lat": 44.4013104,
      "lon": 8.9526587,
      "tags": {
        "amenity": "bar",
        "name": "Bar Caffetteria No Name"
      }
    },
    {
      "type": "node",
      "id": 1466961895,
      "lat": 44.4021955,
      "lon": 8.951362,
      "tags": {
        "amenity": "bar",
        "name": "Bar Gelateria 010"
      }
    },
    {
      "type": "node",
      "id": 1466961898,
      "lat": 44.401189,
      "lon": 8.9531869,
      "tags": {
        "amenity": "bar",
        "name": "BonTon Bar"
      }
    },
    {
      "type": "node",
      "id": 1466961906,
      "lat": 44.4017433,
      "lon": 8.9511257,
      "tags": {
        "amenity": "bar",
        "name": "Caffè Savonarola",
        "wheelchair": "yes"
      }
    },
    {
      "type": "node",
      "id": 1474493106,
      "lat": 44.4062102,
      "lon": 8.9722088,
      "tags": {
        "amenity": "bar",
        "check_date": "2025-11-21",
        "name": "Bar Laim",
        "opening_hours": "Mo-Su 06:30-23:00"
      }
    },
    {
      "type": "node",
      "id": 1475143360,
      "lat": 44.4043543,
      "lon": 8.9433517,
      "tags": {
        "addr:housenumber": "60  rosso",
        "addr:street": "Via Granello",
        "amenity": "bar",
        "check_date": "2025-12-20",
        "name": "Bar Granello"
      }
    },
    {
      "type": "node",
      "id": 1475146285,
      "lat": 44.4039416,
      "lon": 8.9540573,
      "tags": {
        "addr:housenumber": "1 rosso",
        "addr:street": "Via Giovanni Tomaso Invrea",
        "amenity": "bar",
        "barrier": "entrance",
        "bicycle": "no",
        "foot": "yes"
      }
    },
    {
      "type": "node",
      "id": 1475147543,
      "lat": 44.4014377,
      "lon": 8.9390774,
      "tags": {
        "addr:housenumber": "24 rosso",
        "addr:street": "Via Ilva",
        "amenity": "bar",
        "check_date:opening_hours": "2025-01-10",
        "name": "Le Petillant",
        "opening_hours": "Mo-Fr 07:00-17:00",
        "outdoor_seating": "yes"
      }
    },
    {
      "type": "node",
      "id": 1475150373,
      "lat": 44.4145835,
      "lon": 8.9533208,
      "tags": {
        "addr:housenumber": "14 rosso",
        "addr:street": "Via del Piano",
        "amenity": "bar",
        "barrier": "entrance",
        "foot": "yes",
        "name": "Kafesito"
      }
    },
    {
      "type": "node",
      "id": 1475151831,
      "lat": 44.4050544,
      "lon": 8.939208,
      "tags": {
        "addr:housenumber": "35 rosso",
        "addr:street": "Corso Andrea Podestà",
        "amenity": "bar",
        "name": "Bar Caffetteria Al Convivio"
      }
    },
    {
      "type": "node",
      "id": 1475155753,
      "lat": 44.4095369,
      "lon": 8.9356508,
      "tags": {
        "addr:housenumber": "36 rosso",
        "addr:street": "Via San Sebastiano",
        "amenity": "nightclub",
        "name": "Louisiana Jazz Club",
        "url": "https://www.louisianajazz.it/",
        "wheelchair": "limited",
        "wikidata": "Q20008542"
      }
    },
    {
      "type": "node",
      "id": 1476754133,
      "lat": 44.4124855,
      "lon": 8.926522,
      "tags": {
        "addr:housenumber": "35-36",
        "addr:street": "Molo Ponte Morosini",
        "amenity": "bar",
        "check_date": "2025-09-06",
        "name": "Caffè Il Gelato"
      }
    },
    {
      "type": "node",
      "id": 1476754176,
      "lat": 44.4142098,
      "lon": 8.9236027,
      "tags": {
        "amenity": "bar",
        "name": "Galata Cafè",
        "opening_hours:signed": "no",
        "wheelchair": "yes"
      }
    },
    {
      "type": "node",
      "id": 1478177664,
      "lat": 44.3974069,
      "lon": 8.980917,
      "tags": {
        "amenity": "bar",
        "name": "Isonzo Bar"
      }
    },
    {
      "type": "node",
      "id": 1478177770,
      "lat": 44.4029756,
      "lon": 8.9834953,
      "tags": {
        "amenity": "bar",
        "internet_access": "wlan",
        "internet_access:fee": "no",
        "internet_access:operator": "Vallicom",
        "internet_access:ssid": "Bar Operosi",
        "name": "Bar Operosi"
      }
    },
    {
      "type": "node",
      "id": 1478811746,
      "lat": 44.4020877,
      "lon": 8.9452667,
      "tags": {
        "amenity": "bar",
        "name": "Bar Cosmo"
      }
    },
    {
      "type": "node",
      "id": 1478844017,
      "lat": 44.4165222,
      "lon": 8.9603901,
      "tags": {
        "alt_name": "da Orazio",
        "amenity": "bar",
        "check_date": "2025-12-28",
        "name": "Bar Sport"
      }
    },
    {
      "type": "node",
      "id": 1482497667,
      "lat": 44.4113345,
      "lon": 8.8889781,
      "tags": {
        "amenity": "bar",
        "name": "Bar Roma"
      }
    },
    {
      "type": "node",
      "id": 1483918545,
      "lat": 44.4124668,
      "lon": 8.8911053,
      "tags": {
        "amenity": "bar",
        "name": "Bar Liz",
        "outdoor_seating": "yes",
        "wheelchair": "no"
      }
    },
    {
      "type": "node",
      "id": 1487627614,
      "lat": 44.3933631,
      "lon": 8.9751778,
      "tags": {
        "amenity": "bar",
        "name": "Bar Tortuga"
      }
    },
    {
      "type": "node",
      "id": 1487627652,
      "lat": 44.3971386,
      "lon": 8.9681686,
      "tags": {
        "amenity": "bar",
        "name": "Sherry Bar"
      }
    },
    {
      "type": "node",
      "id": 1488354825,
      "lat": 44.4174615,
      "lon": 8.9544657,
      "tags": {
        "amenity": "pub",
        "name": "Sardinia Pub"
      }
    },
    {
      "type": "node",
      "id": 1488595186,
      "lat": 44.181707,
      "lon": 8.3944685,
      "tags": {
        "amenity": "bar",
        "indoor_seating": "yes",
        "name": "Varicottis Bar",
        "outdoor_seating": "yes"
      }
    },
    {
      "type": "node",
      "id": 1491176155,
      "lat": 44.4052575,
      "lon": 8.9418488,
      "tags": {
        "addr:housenumber": "62 rosso",
        "addr:street": "Via Venti Settembre",
        "amenity": "bar",
        "check_date": "2025-09-12",
        "name": "Caffè Pasticceria Douce",
        "wheelchair": "no"
      }
    },
    {
      "type": "node",
      "id": 1496310818,
      "lat": 44.4108378,
      "lon": 8.9289126,
      "tags": {
        "addr:housenumber": "109 rosso",
        "addr:street": "Via di Sottoripa",
        "amenity": "bar",
        "check_date": "2025-09-06",
        "name": "Bar dell'Acquario"
      }
    },
    {
      "type": "node",
      "id": 1496310824,
      "lat": 44.4048181,
      "lon": 8.9313401,
      "tags": {
        "amenity": "bar",
        "name": "Cafè Retrò"
      }
    },
    {
      "type": "node",
      "id": 1505394321,
      "lat": 44.4031863,
      "lon": 8.9471131,
      "tags": {
        "addr:housenumber": "18 rosso",
        "addr:street": "Viale Brigata Bisagno",
        "amenity": "bar",
        "contact:phone": "+39 010 4554721",
        "name": "M & G",
        "ref:vatin": "IT01967520998"
      }
    },
    {
      "type": "node",
      "id": 1531512433,
      "lat": 44.4292235,
      "lon": 8.8928198,
      "tags": {
        "amenity": "bar",
        "name": "Bar Pinin"
      }
    },
    {
      "type": "node",
      "id": 1547113251,
      "lat": 44.4134516,
      "lon": 8.9236016,
      "tags": {
        "addr:housenumber": "4",
        "addr:street": "Calata Andalò di Negro",
        "amenity": "bar",
        "internet_access": "wlan",
        "internet_access:fee": "no",
        "internet_access:operator": "Vallicom",
        "internet_access:ssid": "Darsena",
        "name": "InDarsena Oyster Bar",
        "wheelchair": "yes"
      }
    },
    {
      "type": "node",
      "id": 1560393331,
      "lat": 44.383584,
      "lon": 9.0310436,
      "tags": {
        "amenity": "pub",
        "name": "American Bar Cubilla",
        "opening_hours": "Mo-Su 20:00-02:30"
      }
    },
    {
      "type": "node",
      "id": 1560393338,
      "lat": 44.3831044,
      "lon": 9.0298568,
      "tags": {
        "amenity": "bar",
        "name": "Bar Il Veliero"
      }
    },
    {
      "type": "node",
      "id": 1560393362,
      "lat": 44.3830951,
      "lon": 9.0309835,
      "tags": {
        "amenity": "pub",
        "name": "Birreria Imbarco1"
      }
    },
    {
      "type": "node",
      "id": 1560393376,
      "lat": 44.3827716,
      "lon": 9.0308506,
      "tags": {
        "amenity": "pub",
        "name": "Il Dodo Beer Wine and Food"
      }
    },
    {
      "type": "node",
      "id": 1571603800,
      "lat": 44.4059493,
      "lon": 8.9321105,
      "tags": {
        "amenity": "pub",
        "name": "Pub Rossodisera"
      }
    },
    {
      "type": "node",
      "id": 1571603804,
      "lat": 44.4059508,
      "lon": 8.9318688,
      "tags": {
        "addr:housenumber": "22 rosso",
        "addr:street": "Via di San Donato",
        "amenity": "pub",
        "name": "Pizzeria Birreria Friends",
        "note": "Verificare che ci sia sempre o che abbia preso il suo posto quella accanto al 24r"
      }
    },
    {
      "type": "node",
      "id": 1576063869,
      "lat": 44.40371,
      "lon": 8.9443127,
      "tags": {
        "amenity": "bar",
        "name": "Al Parador"
      }
    },
    {
      "type": "node",
      "id": 1577222233,
      "lat": 44.4268785,
      "lon": 8.815113,
      "tags": {
        "amenity": "bar",
        "name": "Le Palme american bar"
      }
    },
    {
      "type": "node",
      "id": 1585013825,
      "lat": 44.4029912,
      "lon": 8.9481344,
      "tags": {
        "addr:housenumber": "20 rosso",
        "addr:street": "Via di Santa Zita",
        "amenity": "bar",
        "name": "Bar Ristorante 2 Elle"
      }
    },
    {
      "type": "node",
      "id": 1586835491,
      "lat": 44.4054303,
      "lon": 8.9752203,
      "tags": {
        "amenity": "bar",
        "check_date": "2025-11-21",
        "name": "Avocado"
      }
    },
    {
      "type": "node",
      "id": 1588634086,
      "lat": 44.4275089,
      "lon": 8.8387736,
      "tags": {
        "amenity": "pub",
        "name": "Pub Al Cantiere"
      }
    },
    {
      "type": "node",
      "id": 1596068592,
      "lat": 44.4046725,
      "lon": 8.9667805,
      "tags": {
        "amenity": "pub",
        "check_date": "2025-05-01",
        "name": "Bar Università"
      }
    },
    {
      "type": "node",
      "id": 1607632013,
      "lat": 44.448921,
      "lon": 8.9972847,
      "tags": {
        "amenity": "bar",
        "name": "Bar Latteria Massimo"
      }
    },
    {
      "type": "node",
      "id": 1610762903,
      "lat": 44.411859,
      "lon": 8.8943152,
      "tags": {
        "amenity": "pub",
        "name": "Il Cantinone",
        "opening_hours": "Mo-Th 18:00-01:00, Fr,Sa 18:00-02:00",
        "outdoor_seating": "no"
      }
    },
    {
      "type": "node",
      "id": 1649597055,
      "lat": 44.1190552,
      "lon": 9.8406735,
      "tags": {
        "amenity": "bar",
        "check_date": "2023-09-01",
        "name": "Il chiosco nel parco"
      }
    },
    {
      "type": "node",
      "id": 1666620086,
      "lat": 44.4142108,
      "lon": 8.9463177,
      "tags": {
        "amenity": "bar",
        "name": "Bar Bertoli",
        "outdoor_seating": "yes"
      }
    },
    {
      "type": "node",
      "id": 1675608799,
      "lat": 44.5768294,
      "lon": 9.278596,
      "tags": {
        "amenity": "bar",
        "name": "Bar Biasotti"
      }
    },
    {
      "type": "node",
      "id": 1686458995,
      "lat": 44.4033256,
      "lon": 8.9790517,
      "tags": {
        "amenity": "bar"
      }
    },
    {
      "type": "node",
      "id": 1699988549,
      "lat": 44.4042032,
      "lon": 8.9300984,
      "tags": {
        "amenity": "bar",
        "name": "Casa Nawal"
      }
    },
    {
      "type": "node",
      "id": 1704955758,
      "lat": 44.413788,
      "lon": 8.8856222,
      "tags": {
        "amenity": "bar",
        "name": "American Bar Crazy Bull cafè"
      }
    },
    {
      "type": "node",
      "id": 1711147580,
      "lat": 44.4280412,
      "lon": 8.9491848,
      "tags": {
        "addr:housenumber": "55 rosso",
        "addr:street": "Via Bobbio",
        "amenity": "bar",
        "name": "Bar Sette",
        "phone": "+39 010 810388"
      }
    },
    {
      "type": "node",
      "id": 1718243672,
      "lat": 44.4244336,
      "lon": 8.8144776,
      "tags": {
        "amenity": "bar",
        "name": "Bar Gelateria La Pegliese"
      }
    },
    {
      "type": "node",
      "id": 1721798969,
      "lat": 43.8188099,
      "lon": 7.7795799,
      "tags": {
        "amenity": "pub",
        "indoor_seating": "yes",
        "name": "Cafe Centro (Pietro's Bar)",
        "outdoor_seating": "yes"
      }
    },
    {
      "type": "node",
      "id": 1721894407,
      "lat": 44.3516588,
      "lon": 9.2304944,
      "tags": {
        "amenity": "bar",
        "name": "Uno Bar"
      }
    },
    {
      "type": "node",
      "id": 1721977076,
      "lat": 44.3506115,
      "lon": 9.2318407,
      "tags": {
        "amenity": "bar"
      }
    },
    {
      "type": "node",
      "id": 1722618742,
      "lat": 43.8278794,
      "lon": 7.7705849,
      "tags": {
        "amenity": "bar",
        "name": "Bar Alain"
      }
    },
    {
      "type": "node",
      "id": 1723042015,
      "lat": 43.8220422,
      "lon": 7.7955723,
      "tags": {
        "amenity": "bar",
        "name": "Bar Maurice"
      }
    },
    {
      "type": "node",
      "id": 1726127810,
      "lat": 43.8204491,
      "lon": 7.7905538,
      "tags": {
        "amenity": "bar",
        "indoor_seating": "yes",
        "name": "Bar Sud Est",
        "outdoor_seating": "yes"
      }
    },
    {
      "type": "node",
      "id": 1731178792,
      "lat": 44.388998,
      "lon": 8.2074299,
      "tags": {
        "amenity": "bar",
        "name": "Luky&Charlie"
      }
    },
    {
      "type": "node",
      "id": 1731178846,
      "lat": 44.388975,
      "lon": 8.2071187,
      "tags": {
        "amenity": "bar",
        "name": "fiorita"
      }
    },
    {
      "type": "node",
      "id": 1734258526,
      "lat": 43.8505571,
      "lon": 7.624338,
      "tags": {
        "addr:place": "Piazza Padre G. Mauro",
        "amenity": "bar",
        "check_date": "2024-09-11",
        "name": "Bar Doria",
        "outdoor_seating": "yes"
      }
    },
    {
      "type": "node",
      "id": 1734272819,
      "lat": 44.4279511,
      "lon": 8.8929328,
      "tags": {
        "amenity": "bar",
        "name": "Sotto i tetti"
      }
    },
    {
      "type": "node",
      "id": 1734274019,
      "lat": 44.4300044,
      "lon": 8.8945797,
      "tags": {
        "amenity": "bar",
        "name": "Bar S.O.C"
      }
    },
    {
      "type": "node",
      "id": 1739668242,
      "lat": 44.4590653,
      "lon": 8.9007304,
      "tags": {
        "amenity": "bar",
        "name": "Europa"
      }
    },
    {
      "type": "node",
      "id": 1739668327,
      "lat": 44.4582768,
      "lon": 8.9015561,
      "tags": {
        "amenity": "bar"
      }
    },
    {
      "type": "node",
      "id": 1741072768,
      "lat": 43.8139063,
      "lon": 7.776808,
      "tags": {
        "amenity": "bar",
        "check_date": "2023-04-28",
        "name": "Living Garden"
      }
    },
    {
      "type": "node",
      "id": 1741402075,
      "lat": 44.4059989,
      "lon": 8.9293209,
      "tags": {
        "addr:housename": "Torre degli Embriaci",
        "addr:housenumber": "2",
        "addr:postcode": "16123",
        "addr:street": "Salita alla Torre degli Embriaci",
        "alt_name": "e Embriaci",
        "amenity": "pub",
        "int_name": "e Embriaci",
        "name": "Cantine Embriaci",
        "old_name": "e Embriaci"
      }
    },
    {
      "type": "node",
      "id": 1741419389,
      "lat": 44.4068514,
      "lon": 8.9285562,
      "tags": {
        "amenity": "pub",
        "check_date": "2025-10-03",
        "name": "Fitz Birrificio Genovese",
        "old_name": "Fitz Carraldo",
        "opening_hours": "Tu-Th, Su 18:00-02:00; Fr, Sa 19:00-03:00"
      }
    },
    {
      "type": "node",
      "id": 1741445220,
      "lat": 44.4062715,
      "lon": 8.9283444,
      "tags": {
        "addr:housenumber": "24 rosso",
        "addr:postcode": "16123",
        "addr:street": "Via delle Grazie",
        "amenity": "pub",
        "name": "Le due porte"
      }
    },
    {
      "type": "node",
      "id": 1741580014,
      "lat": 44.413996,
      "lon": 8.9293076,
      "tags": {
        "addr:housenumber": "25 rosso",
        "addr:street": "Via di Sant'Agnese",
        "amenity": "bar",
        "email": "info@mescite.it",
        "name": "Mescite!"
      }
    },
    {
      "type": "node",
      "id": 1741580019,
      "lat": 44.4101913,
      "lon": 8.9314132,
      "tags": {
        "amenity": "bar",
        "name": "La lepre"
      }
    },
    {
      "type": "node",
      "id": 1743766198,
      "lat": 44.4123339,
      "lon": 8.9502723,
      "tags": {
        "amenity": "bar",
        "name": "Il giorno e la notte",
        "wifi": "no"
      }
    },
    {
      "type": "node",
      "id": 1745325886,
      "lat": 44.4153844,
      "lon": 8.9530809,
      "tags": {
        "amenity": "bar",
        "check_date": "2025-08-25",
        "name": "Bar Vittorio"
      }
    },
    {
      "type": "node",
      "id": 1745325887,
      "lat": 44.4148364,
      "lon": 8.9531416,
      "tags": {
        "amenity": "bar"
      }
    },
    {
      "type": "node",
      "id": 1745325888,
      "lat": 44.4149838,
      "lon": 8.9530154,
      "tags": {
        "amenity": "bar",
        "name": "Piccolo Ristoro"
      }
    },
    {
      "type": "node",
      "id": 1746738289,
      "lat": 44.4136431,
      "lon": 8.9462008,
      "tags": {
        "amenity": "bar",
        "check_date": "2025-03-15",
        "name": "Bar Michelangelo",
        "wheelchair": "limited"
      }
    },
    {
      "type": "node",
      "id": 1754397035,
      "lat": 44.2633337,
      "lon": 8.4179647,
      "tags": {
        "amenity": "bar",
        "name": "Bar Lella"
      }
    },
    {
      "type": "node",
      "id": 1754397036,
      "lat": 44.2631109,
      "lon": 8.4174893,
      "tags": {
        "amenity": "bar"
      }
    },
    {
      "type": "node",
      "id": 1754401098,
      "lat": 44.2465831,
      "lon": 8.4411273,
      "tags": {
        "amenity": "bar"
      }
    },
    {
      "type": "node",
      "id": 1757358321,
      "lat": 44.3572568,
      "lon": 8.3133255,
      "tags": {
        "amenity": "bar"
      }
    },
    {
      "type": "node",
      "id": 1761437757,
      "lat": 44.4573837,
      "lon": 8.900941,
      "tags": {
        "amenity": "bar",
        "name": "Bar Pippo"
      }
    },
    {
      "type": "node",
      "id": 1771946872,
      "lat": 44.4217785,
      "lon": 9.3876284,
      "tags": {
        "amenity": "bar"
      }
    },
    {
      "type": "node",
      "id": 1775890729,
      "lat": 44.4025027,
      "lon": 8.9438087,
      "tags": {
        "amenity": "bar",
        "name": "Bar del Liceo"
      }
    },
    {
      "type": "node",
      "id": 1775901096,
      "lat": 44.0923502,
      "lon": 8.1283844,
      "tags": {
        "amenity": "bar"
      }
    },
    {
      "type": "node",
      "id": 1777896259,
      "lat": 44.4068497,
      "lon": 8.9649799,
      "tags": {
        "amenity": "bar",
        "check_date": "2025-05-01",
        "name": "Bar Torrefazione Blue Jamaica"
      }
    },
    {
      "type": "node",
      "id": 1780399701,
      "lat": 44.4168746,
      "lon": 8.9475725,
      "tags": {
        "amenity": "bar",
        "name": "Pino"
      }
    },
    {
      "type": "node",
      "id": 1780658076,
      "lat": 44.3973575,
      "lon": 8.9495462,
      "tags": {
        "amenity": "bar",
        "check_date": "2025-05-01",
        "name": "Mini Mixing",
        "wheelchair": "yes"
      }
    },
    {
      "type": "node",
      "id": 1780658085,
      "lat": 44.3993821,
      "lon": 8.9497341,
      "tags": {
        "addr:housenumber": "64 rosso",
        "addr:postcode": "16129",
        "addr:street": "Corso Torino",
        "amenity": "pub",
        "name": "Pub D'oh"
      }
    },
    {
      "type": "node",
      "id": 1786322467,
      "lat": 44.4001509,
      "lon": 8.9591911,
      "tags": {
        "amenity": "pub",
        "check_date": "2025-07-08",
        "name": "Basilico Caffè",
        "website": "https://www.basilicocaffe.com/"
      }
    },
    {
      "type": "node",
      "id": 1794672356,
      "lat": 44.2337643,
      "lon": 9.66206,
      "tags": {
        "amenity": "bar"
      }
    },
    {
      "type": "node",
      "id": 1807571848,
      "lat": 44.5069359,
      "lon": 8.8914575,
      "tags": {
        "amenity": "bar"
      }
    },
    {
      "type": "node",
      "id": 1808831365,
      "lat": 44.1696582,
      "lon": 9.6087868,
      "tags": {
        "amenity": "bar",
        "check_date": "2025-07-30",
        "name": "Piper bar"
      }
    },
    {
      "type": "node",
      "id": 1809887513,
      "lat": 44.5070955,
      "lon": 8.8889201,
      "tags": {
        "amenity": "bar"
      }
    },
    {
      "type": "node",
      "id": 1811261071,
      "lat": 44.4277965,
      "lon": 8.8178366,
      "tags": {
        "amenity": "bar",
        "name": "Caffellatte"
      }
    },
    {
      "type": "node",
      "id": 1830979581,
      "lat": 43.8635619,
      "lon": 7.8529738,
      "tags": {
        "amenity": "bar",
        "name": "Bar Globo"
      }
    },
    {
      "type": "node",
      "id": 1832396980,
      "lat": 44.4075652,
      "lon": 8.9367979,
      "tags": {
        "amenity": "pub",
        "name": "Moody's"
      }
    },
    {
      "type": "node",
      "id": 1840791497,
      "lat": 44.2736722,
      "lon": 9.6361017,
      "tags": {
        "amenity": "bar"
      }
    },
    {
      "type": "node",
      "id": 1857338998,
      "lat": 44.2744872,
      "lon": 9.6586033,
      "tags": {
        "amenity": "bar"
      }
    },
    {
      "type": "node",
      "id": 1879845410,
      "lat": 44.120482,
      "lon": 9.7088332,
      "tags": {
        "amenity": "bar"
      }
    },
    {
      "type": "node",
      "id": 1879845420,
      "lat": 44.1206278,
      "lon": 9.7088624,
      "tags": {
        "addr:housenumber": "58",
        "addr:street": "Via Fieschi",
        "amenity": "bar",
        "name": "Terra Rossa Enoteca Winebar"
      }
    },
    {
      "type": "node",
      "id": 1880659616,
      "lat": 44.2154242,
      "lon": 9.5160688,
      "tags": {
        "amenity": "bar",
        "toilets:wheelchair": "no",
        "wheelchair": "yes"
      }
    },
    {
      "type": "node",
      "id": 1891171845,
      "lat": 44.4164531,
      "lon": 8.8877347,
      "tags": {
        "addr:city": "Genova",
        "addr:housenumber": "121",
        "addr:postcode": "16151",
        "addr:street": "Via Carlo Rolando",
        "addr:unit": "R",
        "amenity": "bar",
        "name": "Grano D'Oro"
      }
    },
    {
      "type": "node",
      "id": 1891567252,
      "lat": 44.372447,
      "lon": 9.1040236,
      "tags": {
        "addr:housenumber": "10",
        "addr:street": "Via G. Stagno",
        "amenity": "bar",
        "name": "Sori Cafè"
      }
    },
    {
      "type": "node",
      "id": 1891567254,
      "lat": 44.3720348,
      "lon": 9.1042704,
      "tags": {
        "amenity": "bar",
        "name": "Bar La Perla"
      }
    },
    {
      "type": "node",
      "id": 1895375701,
      "lat": 44.3650971,
      "lon": 9.1448399,
      "tags": {
        "amenity": "bar",
        "name": "Bar Massone"
      }
    },
    {
      "type": "node",
      "id": 1903080233,
      "lat": 44.4332478,
      "lon": 8.8931567,
      "tags": {
        "amenity": "bar",
        "name": "1000 e un gelato"
      }
    },
    {
      "type": "node",
      "id": 1906534607,
      "lat": 44.5066099,
      "lon": 8.8919802,
      "tags": {
        "amenity": "bar"
      }
    },
    {
      "type": "node",
      "id": 1909077127,
      "lat": 44.5310359,
      "lon": 8.9363203,
      "tags": {
        "amenity": "bar"
      }
    },
    {
      "type": "node",
      "id": 1913407813,
      "lat": 44.5089849,
      "lon": 8.9135567,
      "tags": {
        "amenity": "bar"
      }
    },
    {
      "type": "node",
      "id": 1915790751,
      "lat": 44.4281458,
      "lon": 9.1888586,
      "tags": {
        "amenity": "bar"
      }
    },
    {
      "type": "node",
      "id": 1920895386,
      "lat": 44.2735965,
      "lon": 9.5144205,
      "tags": {
        "amenity": "bar"
      }
    },
    {
      "type": "node",
      "id": 1922417243,
      "lat": 44.552404,
      "lon": 8.937075,
      "tags": {
        "amenity": "bar",
        "name": "Tana dell'Orso"
      }
    },
    {
      "type": "node",
      "id": 1925834063,
      "lat": 44.43527,
      "lon": 8.9629214,
      "tags": {
        "amenity": "bar",
        "name": "Bar Diana"
      }
    },
    {
      "type": "node",
      "id": 1925834115,
      "lat": 44.4348599,
      "lon": 8.9636487,
      "tags": {
        "amenity": "bar"
      }
    },
    {
      "type": "node",
      "id": 1925834177,
      "lat": 44.435209,
      "lon": 8.9637,
      "tags": {
        "amenity": "bar"
      }
    },
    {
      "type": "node",
      "id": 1928546916,
      "lat": 44.3816067,
      "lon": 9.0348694,
      "tags": {
        "addr:housenumber": "36 rosso",
        "addr:street": "Passeggiata Anita Garibaldi",
        "amenity": "bar",
        "name": "Bar Cocktail gelateria Nuovo Miramare"
      }
    },
    {
      "type": "node",
      "id": 1935958663,
      "lat": 44.1137383,
      "lon": 9.9491855,
      "tags": {
        "amenity": "bar"
      }
    },
    {
      "type": "node",
      "id": 1935958749,
      "lat": 44.1133896,
      "lon": 9.9474931,
      "tags": {
        "amenity": "bar"
      }
    },
    {
      "type": "node",
      "id": 1939336512,
      "lat": 44.102492,
      "lon": 9.8201956,
      "tags": {
        "addr:city": "La Spezia",
        "addr:country": "IT",
        "addr:housenumber": "11",
        "addr:postcode": "19121",
        "addr:province": "SP",
        "addr:state": "Liguria",
        "addr:street": "Via Cristoforo Colombo",
        "amenity": "pub",
        "name": "The Murphy's Pub",
        "opening_hours": "PH,Mo-Su 12:00-02:00",
        "phone": "+39 0187731148"
      }
    },
    {
      "type": "node",
      "id": 1944522845,
      "lat": 44.4004947,
      "lon": 8.6854221,
      "tags": {
        "alt_name:it": "Bar Tina",
        "amenity": "bar",
        "internet_access": "no",
        "shop": "kiosk"
      }
    },
    {
      "type": "node",
      "id": 1948240719,
      "lat": 43.8007694,
      "lon": 7.7219984,
      "tags": {
        "amenity": "bar",
        "name": "Gelateria Bar Ristorante Alexandra"
      }
    },
    {
      "type": "node",
      "id": 1955245571,
      "lat": 44.4443408,
      "lon": 8.964874,
      "tags": {
        "amenity": "bar",
        "name": "Bar Pesce"
      }
    },
    {
      "type": "node",
      "id": 1960530271,
      "lat": 44.4518073,
      "lon": 8.9747973,
      "tags": {
        "amenity": "bar",
        "name": "Bar Luciano"
      }
    },
    {
      "type": "node",
      "id": 1960926842,
      "lat": 44.4136466,
      "lon": 8.9333575,
      "tags": {
        "amenity": "bar",
        "name": "Gelateria graniteria Don Paolo",
        "outdoor_seating": "yes",
        "wheelchair": "no"
      }
    },
    {
      "type": "node",
      "id": 1980479813,
      "lat": 44.2725115,
      "lon": 8.4387412,
      "tags": {
        "amenity": "bar"
      }
    },
    {
      "type": "node",
      "id": 1980479816,
      "lat": 44.2722839,
      "lon": 8.4386067,
      "tags": {
        "amenity": "bar"
      }
    },
    {
      "type": "node",
      "id": 1980479860,
      "lat": 44.2713488,
      "lon": 8.4386065,
      "tags": {
        "amenity": "bar",
        "name": "Bar Haiti"
      }
    },
    {
      "type": "node",
      "id": 1980479864,
      "lat": 44.2705521,
      "lon": 8.4381366,
      "tags": {
        "amenity": "bar",
        "name": "Il chicco"
      }
    },
    {
      "type": "node",
      "id": 1980479873,
      "lat": 44.2716767,
      "lon": 8.4360927,
      "tags": {
        "amenity": "bar",
        "level": "0",
        "name": "JeMa's Bar",
        "outdoor_seating": "yes"
      }
    },
    {
      "type": "node",
      "id": 1980479911,
      "lat": 44.2761991,
      "lon": 8.4405408,
      "tags": {
        "addr:city": "Vado Ligure",
        "addr:housenumber": "22",
        "addr:postcode": "17047",
        "addr:street": "Via Aurelia",
        "amenity": "pub",
        "name": "La Botte"
      }
    },
    {
      "type": "node",
      "id": 1980479936,
      "lat": 44.2706448,
      "lon": 8.4388163,
      "tags": {
        "amenity": "bar"
      }
    },
    {
      "type": "node",
      "id": 1980479948,
      "lat": 44.2716785,
      "lon": 8.4381095,
      "tags": {
        "addr:city": "Vado Ligure",
        "addr:country": "IT",
        "addr:housenumber": "20",
        "addr:postcode": "17047",
        "addr:street": "Piazza Cavour",
        "amenity": "bar",
        "name": "Bar Baguttino"
      }
    },
    {
      "type": "node",
      "id": 1980527683,
      "lat": 44.2662144,
      "lon": 8.4409985,
      "tags": {
        "amenity": "bar",
        "check_date": "2025-11-05",
        "name": "Bar Da ù Gheia"
      }
    },
    {
      "type": "node",
      "id": 1984508735,
      "lat": 44.4164605,
      "lon": 8.9235981,
      "tags": {
        "addr:city": "Genova",
        "addr:housenumber": "169 rosso",
        "addr:postcode": "16126",
        "addr:street": "Via Balbi",
        "amenity": "bar",
        "check_date": "2025-08-30",
        "indoor_seating": "yes",
        "internet_access": "wlan",
        "internet_access:fee": "no",
        "internet_access:operator": "Vallicom",
        "internet_access:ssid": "Bar Cavo",
        "name": "Cellini caffe",
        "outdoor_seating": "no"
      }
    },
    {
      "type": "node",
      "id": 1985054891,
      "lat": 44.5663312,
      "lon": 8.9640432,
      "tags": {
        "amenity": "pub",
        "internet_access": "wlan",
        "internet_access:fee": "no",
        "internet_access:operator": "Vallicom",
        "name": "Pizzeria Lov"
      }
    },
    {
      "type": "node",
      "id": 1991052436,
      "lat": 43.8019409,
      "lon": 7.7453559,
      "tags": {
        "amenity": "bar"
      }
    },
    {
      "type": "node",
      "id": 2027087795,
      "lat": 44.114072,
      "lon": 9.8098422,
      "tags": {
        "amenity": "bar",
        "indoor_seating": "yes",
        "outdoor_seating": "yes"
      }
    },
    {
      "type": "node",
      "id": 2027087811,
      "lat": 44.1126065,
      "lon": 9.8109098,
      "tags": {
        "amenity": "bar"
      }
    },
    {
      "type": "node",
      "id": 2027087843,
      "lat": 44.1132709,
      "lon": 9.8082034,
      "tags": {
        "amenity": "bar"
      }
    },
    {
      "type": "node",
      "id": 2028670099,
      "lat": 44.4122025,
      "lon": 8.9257814,
      "tags": {
        "addr:housenumber": "44",
        "addr:street": "Molo Ponte Morosini",
        "amenity": "bar",
        "check_date": "2025-09-06",
        "name": "La Ville Superbe Brasserie",
        "wheelchair": "yes"
      }
    },
    {
      "type": "node",
      "id": 2028670106,
      "lat": 44.4128685,
      "lon": 8.9271492,
      "tags": {
        "addr:housenumber": "69 rosso",
        "addr:street": "Via Antonio Gramsci",
        "amenity": "bar",
        "check_date": "2025-04-13",
        "name": "88 Bar"
      }
    },
    {
      "type": "node",
      "id": 2028670159,
      "lat": 44.4119629,
      "lon": 8.9252502,
      "tags": {
        "addr:housenumber": "47;48",
        "addr:street": "Molo Ponte Morosini",
        "amenity": "pub",
        "contact:phone": "+39 010 246 9525",
        "level": "0",
        "name": "Old Port Bar",
        "operator": "Maccari e Costi snc",
        "outdoor_seating": "yes",
        "payment:meal_voucher": "yes",
        "ref:vatin": "IT03879770109",
        "website": "http://www.oldport.it/",
        "wheelchair": "yes"
      }
    },
    {
      "type": "node",
      "id": 2029787028,
      "lat": 43.8611745,
      "lon": 7.8528693,
      "tags": {
        "addr:postcode": "18018",
        "addr:street": "Via Ruffini 15",
        "amenity": "bar",
        "name": "L'Altro Castelin"
      }
    },
    {
      "type": "node",
      "id": 2032516379,
      "lat": 44.4158117,
      "lon": 8.8688712,
      "tags": {
        "amenity": "bar",
        "name": "Bar La Superba",
        "outdoor_seating": "yes"
      }
    },
    {
      "type": "node",
      "id": 2032681389,
      "lat": 44.4161342,
      "lon": 8.8713713,
      "tags": {
        "amenity": "bar",
        "name": "Bar Pintori",
        "outdoor_seating": "yes"
      }
    },
    {
      "type": "node",
      "id": 2032681462,
      "lat": 44.4159548,
      "lon": 8.8739717,
      "tags": {
        "amenity": "bar",
        "check_date": "2025-04-05",
        "name": "Bar Stadio",
        "outdoor_seating": "no"
      }
    },
    {
      "type": "node",
      "id": 2032681470,
      "lat": 44.4158209,
      "lon": 8.8724624,
      "tags": {
        "amenity": "bar",
        "check_date": "2026-03-28",
        "name": "Bar Alba & Franco"
      }
    },
    {
      "type": "node",
      "id": 2046884994,
      "lat": 44.4067591,
      "lon": 8.9319004,
      "tags": {
        "addr:housenumber": "60 rosso",
        "addr:street": "Piazza Pollaiuoli",
        "amenity": "pub",
        "check_date": "2025-12-22",
        "name": "New Diagonal",
        "opening_hours": "Mo 00:00-02:00; Tu 16:00-24:00; We-Su 00:00-02:00,16:00-24:00"
      }
    },
    {
      "type": "node",
      "id": 2046885006,
      "lat": 44.4121508,
      "lon": 8.8906642,
      "tags": {
        "addr:housenumber": "108 rosso",
        "addr:street": "Via Prete Nicolò Daste",
        "amenity": "pub",
        "name": "Big Ben Pub"
      }
    },
    {
      "type": "node",
      "id": 2046885013,
      "lat": 44.4064514,
      "lon": 8.9264127,
      "tags": {
        "amenity": "pub",
        "name": "Birreria Antica Vetreria"
      }
    },
    {
      "type": "node",
      "id": 2046885020,
      "lat": 44.4060944,
      "lon": 8.9326839,
      "tags": {
        "amenity": "bar",
        "indoor_seating": "yes",
        "name": "Café Latino",
        "outdoor_seating": "yes"
      }
    },
    {
      "type": "node",
      "id": 2046885021,
      "lat": 44.4059677,
      "lon": 8.9327667,
      "tags": {
        "amenity": "pub",
        "name": "Il Corsaro Nero"
      }
    },
    {
      "type": "node",
      "id": 2046885027,
      "lat": 44.4064108,
      "lon": 8.9283258,
      "tags": {
        "amenity": "pub",
        "name": "La Bottega del Conte"
      }
    },
    {
      "type": "node",
      "id": 2046885031,
      "lat": 44.4064889,
      "lon": 8.9347195,
      "tags": {
        "addr:housenumber": "5 rosso",
        "addr:street": "Via Gerolamo Boccardo",
        "amenity": "pub",
        "contact:phone": "+39 010 542988",
        "microbrewery": "yes",
        "name": "Hofbrauhaus Pub",
        "opening_hours": "Mo-Th 12:00-15:30,18:00-24:00; Fr 00:00-01:00,12:00-15:30,18:00-24:00; Sa,Su 00:00-01:00,18:00-24:00",
        "website": "https://www.hbgenova.com/"
      }
    },
    {
      "type": "node",
      "id": 2046885039,
      "lat": 44.428758,
      "lon": 8.7527101,
      "tags": {
        "amenity": "pub",
        "name": "La Nottola"
      }
    },
    {
      "type": "node",
      "id": 2046885046,
      "lat": 44.4065705,
      "lon": 8.931975,
      "tags": {
        "addr:housenumber": "38 rosso",
        "addr:street": "Piazza Pollaiuoli",
        "amenity": "bar",
        "check_date": "2024-11-07",
        "name": "Lo Scorretto"
      }
    },
    {
      "type": "node",
      "id": 2046885061,
      "lat": 44.4061574,
      "lon": 8.931718,
      "tags": {
        "amenity": "pub",
        "name": "La Locanda"
      }
    },
    {
      "type": "node",
      "id": 2046885064,
      "lat": 44.4241589,
      "lon": 8.8464557,
      "tags": {
        "amenity": "pub",
        "name": "Il Gallo Brillo"
      }
    },
    {
      "type": "node",
      "id": 2046954712,
      "lat": 44.4083418,
      "lon": 8.9361115,
      "tags": {
        "amenity": "nightclub",
        "name": "Masnada"
      }
    },
    {
      "type": "node",
      "id": 2046954719,
      "lat": 44.4048222,
      "lon": 8.935109,
      "tags": {
        "amenity": "nightclub",
        "name": "Tao Sushi and Disco"
      }
    },
    {
      "type": "node",
      "id": 2065530684,
      "lat": 44.4625934,
      "lon": 8.9519593,
      "tags": {
        "amenity": "bar"
      }
    },
    {
      "type": "node",
      "id": 2124027461,
      "lat": 44.357085,
      "lon": 8.2903252,
      "tags": {
        "addr:city": "Carcare",
        "addr:housenumber": "6",
        "addr:street": "Piazza Sapeto",
        "amenity": "bar",
        "name": "Rosa Fiorita"
      }
    },
    {
      "type": "node",
      "id": 2130996447,
      "lat": 44.1076469,
      "lon": 9.8180602,
      "tags": {
        "addr:city": "La Spezia",
        "addr:country": "IT",
        "addr:housenumber": "17",
        "addr:province": "SP",
        "addr:state": "Liguria",
        "addr:street": "Via Cernaia",
        "amenity": "pub",
        "check_date": "2023-08-15",
        "name": "La Taverna Del Metallo",
        "opening_hours": "Mo-Su 20:00-02:00",
        "wifi": "no"
      }
    },
    {
      "type": "node",
      "id": 2133591952,
      "lat": 44.4007033,
      "lon": 8.951164,
      "tags": {
        "addr:housenumber": "9r",
        "addr:street": "Via Carlo Pisacane",
        "amenity": "bar",
        "name": "P&O bar",
        "website": "www.poldosbar.it"
      }
    },
    {
      "type": "node",
      "id": 2135866001,
      "lat": 44.0516503,
      "lon": 9.9878278,
      "tags": {
        "amenity": "bar"
      }
    },
    {
      "type": "node",
      "id": 2138993889,
      "lat": 44.3698226,
      "lon": 9.25894,
      "tags": {
        "amenity": "bar"
      }
    },
    {
      "type": "node",
      "id": 2150335677,
      "lat": 44.4131005,
      "lon": 8.9270589,
      "tags": {
        "addr:housenumber": "6 rosso",
        "addr:street": "Via di Pré",
        "amenity": "bar",
        "check_date": "2025-04-13",
        "name": "Bar d'Oro"
      }
    },
    {
      "type": "node",
      "id": 2151860411,
      "lat": 44.3825539,
      "lon": 8.6357633,
      "tags": {
        "amenity": "bar",
        "internet_access": "no",
        "name": "Bar Gino",
        "wheelchair": "yes"
      }
    },
    {
      "type": "node",
      "id": 2152930832,
      "lat": 44.4149642,
      "lon": 8.9299118,
      "tags": {
        "amenity": "bar",
        "name": "togheter bar"
      }
    },
    {
      "type": "node",
      "id": 2158823729,
      "lat": 44.0580322,
      "lon": 9.9298715,
      "tags": {
        "amenity": "bar",
        "name": "Bar La Marina"
      }
    },
    {
      "type": "node",
      "id": 2163971885,
      "lat": 44.4138166,
      "lon": 8.928657,
      "tags": {
        "amenity": "bar",
        "check_date": "2025-09-12",
        "name": "Madai"
      }
    },
    {
      "type": "node",
      "id": 2175887977,
      "lat": 44.4128144,
      "lon": 8.9271571,
      "tags": {
        "addr:housenumber": "65 rosso",
        "addr:street": "Via Antonio Gramsci",
        "amenity": "bar",
        "check_date": "2025-09-06",
        "name": "Gramsci Cafè"
      }
    },