id,name,location_id,latitude,longitude
900009,Ardenno Masino,321,46.16198,9.651374
900010,Arena Po,325,45.082065,9.360394
900011,Asola,390,45.220454,10.402313
900012,Corbetta S. Stefano,6928,45.480829,8.917457
900013,Cosio Traona,7703,46.135564,9.525498
900014,Gazzada Schianno Morazzone,3116,45.77862,8.824815
900015,Gazzo Di Bigarello,1680,45.176648,10.894005
900016,Ghedi,3195,45.409439,10.280506
900017,Castel D`Ario,1638,45.183399,10.97531
900018,Castelleone,1727,45.301826,9.76779
900019,Castellucchio,1759,45.144293,10.64749
900020,Castione Andevenno,1851,46.161659,9.806151
900021,Castronno,1868,45.74524,8.810302
900022,Cava Carbonara,1399,45.147055,9.071387
900023,Cava Tigozzi,7330,45.156823,9.955827
900024,Cavaria Oggiona Jerago,1907,45.698145,8.8035
900025,Cernusco-Merate,2013,45.695096,9.396794
900026,Certosa Di Pavia,2032,45.256927,9.154456
900027,Bressana Argine,962,45.072739,9.137038
900028,Bressana Bottarone,962,45.086298,9.110602
900029,Broni,992,45.066263,9.258751
900030,Chiari,2096,45.54011,9.926474
900031,Chiavenna,2100,46.321258,9.407129
900032,Chignolo Po,2112,45.160942,9.494196
900033,Chiuduno,2118,45.650449,9.846924
900034,Chiuro,2120,46.164658,9.992317
900035,Cisano Caprino Bergamasco,2179,45.739606,9.474261
900036,Civate,2198,45.831295,9.352877
900037,Coccaglio,2237,45.560971,9.977648
900038,Codogno,2245,45.154897,9.701376
900039,Colico,2259,46.138019,9.375222
900040,Borgoforte,4687,45.050328,10.752388
900041,Borgolombardo,6478,45.403856,9.27111
900042,Bozzolo,917,45.107246,10.472655
900043,Brenna-Alzate,938,45.754044,9.183312
900044,Brescia,946,45.532315,10.212828
900045,Candia Lomellina,1280,45.179911,8.593156
900046,Canneto Sull`Oglio,1299,45.150211,10.37147
900047,Cantu`- Cermenate,1427,45.716236,9.099284
900048,Capralba,1358,45.443871,9.640015
900049,Caravaggio,1394,45.491158,9.637723
900050,Carimate,1427,45.697094,9.107188
900051,Carnate Usmate,1444,45.653072,9.375089
900052,Casalbuttano,1501,45.255398,9.962361
900053,Casaletto Vaprio,1519,45.408641,9.631746
900054,Casalmaggiore,1526,44.993139,10.425023
900055,Casalpusterlengo,1534,45.182473,9.653627
900056,Casletto-Rogeno,6130,45.786028,9.275375
900057,Casorate Sempione,1591,45.675075,8.743954
900058,Cassago-Nibionno-Bulciago,1035,45.746243,9.279834
900059,Cassano D`Adda,1600,45.514372,9.512746
900060,Casteggio,1627,45.017365,9.124595
900061,Abbadia Lariana,3,45.895864,9.335175
900062,Abbiategrasso,7,45.400631,8.921305
900063,Acquanegra Cremonese,28,45.172102,9.888456
900064,Airuno,89,45.754086,9.422066
900065,Albate Camerlata,3306,45.777371,9.073461
900066,Albate-Trecallo,7093,45.777391,9.095752
900067,Albizzate Solbiate Arno,130,45.724117,8.80621
900068,Albuzzano,134,45.172504,9.261624
900069,Ambivere Mapello,215,45.722163,9.550444
900070,Anzano Del Parco,272,45.764965,9.202676
900071,Arcisate,311,45.858579,8.86241
900072,Arcore,316,45.623493,9.322798
900073,Gambolo`Remondo`,2002,45.23587,8.79757
900074,Sangiano,6764,45.874464,8.630769
900075,Sartirana,6960,45.111728,8.67012
900076,Montirone,4603,45.451352,10.239482
900077,Monza,4620,45.577789,9.273253
900078,Monza Sobborghi,4620,45.582082,9.284375
900079,Morbegno,4628,46.136663,9.568646
900080,Morengo Bariano,554,45.521639,9.703114
900081,Mornago Cimbro,4651,45.729742,8.734193
900082,Mortara,4665,45.252171,8.731639
900083,Motteggiana,4687,45.029685,10.755439
900084,Buttafava,8326,45.62141,9.301185
900085,Calcio,1130,45.532937,9.841342
900086,Calde`,1811,45.945812,8.663157
900087,Calolziocorte Olginate,1150,45.801619,9.42698
900088,Calusco,1161,45.684113,9.470646
900089,Calvisano,1175,45.346572,10.349411
900090,Pavia Porta Garibaldi,5231,45.183996,9.167331
900091,Remedello Sopra,5926,45.27848,10.379211
900092,Remedello Sotto,1529,45.257477,10.388402
900093,Revere,839,45.049863,11.130884
900094,Revere Scalo,839,45.040431,11.129847
900095,Rho,5945,45.523813,9.043563
900096,Robecco-Pontevico,6032,45.266224,10.078593
900097,Gonzaga-Reggiolo,3271,44.939239,10.815533
900098,Gropello Cairoli,3349,45.173101,8.991626
900099,Grumello Del Monte,3369,45.634102,9.862767
900100,Induno Olona,3426,45.846432,8.838357
900101,Ispra,3471,45.811573,8.621338
900102,Lambrinia,4955,45.164376,9.527436
900103,Laveno Mombello,3599,45.903272,8.624583
900104,Lecco,3607,45.856471,9.393638
900105,Lecco Maggianico,5325,45.831179,9.411691
900106,Leggiuno Monvalle,6764,45.867349,8.629476
900107,Legnano,3612,45.593653,8.910638
900108,Bagnolo Mella,476,45.428532,10.183617
900109,Bellano Tartavelle Terme,617,46.039448,9.302776
900110,S.Stefano Lodigiano,6925,45.122091,9.723606
900111,S. Zeno Folzano,6754,45.491552,10.211683
900112,S. Zenone Al Lambro,6755,45.337824,9.36126
900113,Sairano Zinasco,8440,45.133795,9.030153
900114,Sala Al Barro-Galbiate,3048,45.821086,9.359223
900115,Samolaco,6411,46.246436,9.423582
900116,Cologne,2303,45.576627,9.935316
900117,Como S. Giovanni,2331,45.808946,9.072331
900118,Secugnago,7052,45.223253,9.58684
900119,Seregno,7102,45.64601,9.20285
900120,Seriate,7105,45.683145,9.724628
900121,Sesto Calende,7152,45.726241,8.628135
900122,Sesto S. Giovanni,7156,45.541087,9.23926
900123,Somma Lombardo,7258,45.686423,8.712991
900124,Sondrio,7268,46.167064,9.872928
900125,Soresina,7281,45.283083,9.85664
900126,Stradella,7380,45.079465,9.300865
900127,Suzzara,7422,44.994432,10.756138
900128,Taino Angera,7430,45.772269,8.60599
900129,Talamona,7433,46.13952,9.599528
900130,Ternate Varano Borghi,8017,45.781835,8.700371
900131,Terno,7500,45.688658,9.536169
900132,Ferrera Lomellina,2780,45.111807,8.862805
900133,Fiumelatte,8023,45.999017,9.292857
900134,Parabiago,5179,45.552441,8.946319
900135,Parona Lomellina,5198,45.280107,8.780315
900136,Pavia,5231,45.188843,9.144674
900137,Milano Centrale,4188,45.486347,9.204528
900138,Milano Romolo,4188,45.445008,9.168933
900139,Seveso,7174,45.648187,9.140488
900140,Saronno,6955,45.625309,9.030839
900141,Mariano Comense,3950,45.693622,9.18147
900142,Asso,395,45.855228,9.268513
900143,Cozzo,2474,45.182989,8.603292
900144,Cremona,2490,45.143215,10.017951
900145,Cucciago,2519,45.740813,9.082205
900146,Delebio,2571,46.13865,9.461168
900147,Desenzano,2584,45.462677,10.536322
900148,Dorio,2625,46.102756,9.319063
900149,Oggiono,4886,45.788993,9.33748
900150,Olcio,3893,45.938011,9.313898
900151,Olevano,4894,45.212119,8.71182
900152,Olgiate-Calco-Brivio,4898,45.729166,9.40377
900153,Olmeneta,4914,45.231099,10.03194
900154,Orio Litta,4955,45.166778,9.550592
900155,Osnago,5003,45.678532,9.386995
900156,Ospedaletto Lodigiano,5009,45.16933,9.575164
900157,Ospitaletto Mantovano,1759,45.129748,10.604406
900158,Ostiglia,5020,45.072228,11.141059
900159,Paderno Robbiate,5052,45.678307,9.439202
900160,Palazzolo Sull`Oglio,5111,45.601486,9.896235
900161,Palestro,5141,45.307274,8.534511
900162,Palidano,7422,44.972228,10.777412
900163,Torre De` Picenardi,7641,45.137198,10.286849
900164,Torreberetti,7631,45.060533,8.660431
900165,Travedona Biandronno,529,45.809601,8.696322
900166,Trecella,5725,45.512792,9.480674
900167,Treviglio,7756,45.515063,9.587919
900168,Treviglio Ovest,7756,45.521762,9.580281
900169,Triuggio-Ponte Albiate,122,45.658956,9.266961
900170,Tromello,7824,45.211988,8.872154
900171,Valle Lomellina,7960,45.150588,8.685874
900172,Lesmo,3640,45.644745,9.309318
900173,Lierna,3662,45.960973,9.303071
900174,Lissone-Muggio`,3685,45.60592,9.235368
900175,Locate Triulzi,3707,45.35973,9.221398
900176,Rogolo,6136,46.138696,9.486985
900177,Romano,6222,45.523839,9.753402
900178,Romanore,4687,45.063834,10.750997
900179,Rovato,6287,45.55193,10.000924
900180,Roverbella,6291,45.252645,10.796795
900181,S.Antonio Mantovano,5677,45.187447,10.785806
900182,S. Cristina E Bissone,6856,45.160533,9.401006
900183,Pieve Albignola,5444,45.116248,8.959723
900184,Piona,2259,46.124696,9.350759
900185,Pizzighettone,5519,45.181772,9.777133
900186,Besana,684,45.702824,9.28288
900187,Besnate,689,45.695409,8.761072
900188,Bianzone,705,46.179383,10.112507
900189,Biassono-Lesmo Parco,3640,45.632209,9.298408
900190,Miradolo Terme,4249,45.162007,9.449952
900191,Mantova Frassine,6516,45.150491,10.831007
900192,Moiana,4110,45.787082,9.255607
900193,Molteno,4302,45.780939,9.301683
900194,Montello Gorlago,4522,45.67017,9.808488
900195,Pontida,5644,45.730084,9.511632
900196,Porto Ceresio,5674,45.903675,8.900357
900197,Porto Valtravaglia,5683,45.958219,8.674141
900198,Tavazzano,7459,45.32629,9.402748
900199,Gallarate,3051,45.659828,8.798243
900200,Garlasco,3095,45.198948,8.926829
900201,Gazzo Pieve S. Giacomo,5458,45.137151,10.189922
900202,Albano S.Alessandro,106,45.682744,9.768027
900203,Albonese,131,45.297785,8.714601
900204,S. Giacomo Di Teglio,1752,46.159722,10.027405
900205,S. Giovanni In Croce,6542,45.075783,10.377527
900206,S.Giuletta,6868,45.035719,9.179239
900207,S. Giuliano Milanese,6557,45.391226,9.286418
900208,S.Michele In Bosco,3928,45.122404,10.57329
900209,Poggio Rusco,5549,44.981859,11.124627
900210,Belgioioso,613,45.16456,9.316875
900211,Besozzo,690,45.842188,8.662997
900212,Motta S. Damiano,7961,45.178344,9.219866
900213,Nicorvo,4786,45.275462,8.6712
900214,Novate-Mezzola,4837,46.216595,9.446573
900215,Piadena,5370,45.127608,10.369962
900216,Pinarolo Po,5474,45.073415,9.170273
900217,Pioltello Limito,5487,45.486019,9.329319
900218,Corteolona,2431,45.159701,9.375477
900219,Costa Masnaga,2457,45.76343,9.285231
900220,Crema,2484,45.366864,9.694209
900221,Dervio,2582,46.077709,9.30596
900222,Desio,2585,45.620112,9.218495
900223,Varenna Esino,8023,46.015,9.286405
900224,Varese,8024,45.816201,8.833089
900225,Vercurago S.Girolamo,8101,45.812122,9.422349
900226,Verdello Dalmine,8102,45.605715,9.619797
900227,Vergiate,8108,45.717119,8.693187
900228,Verolanuova,8117,45.324989,10.08388
900229,Viadana Bresciana,1175,45.373648,10.331792
900230,Vidalengo,1394,45.517854,9.639676
900231,Vigevano,8203,45.312712,8.861977
900232,Vignate,8211,45.493946,9.374083
900233,Villa Di Tirano,8241,46.196164,10.13033
900234,Villa Raverio,684,45.690418,9.261549
900235,Lodi,3715,45.308966,9.497585
900236,Lonato,3730,45.457204,10.486714
900237,Luino,3777,45.996643,8.737464
900238,Lungavilla,3784,45.049837,9.068968
900239,Macherio-Canonica,3640,45.645533,9.286736
900240,Macherio Sovico,3818,45.642485,9.266895
900241,Maleo,3871,45.170118,9.755201
900242,Mandello Del Lario,3893,45.915208,9.322061
900243,Manerbio,3897,45.357212,10.132348
900244,Mantova,3908,45.158746,10.783165
900245,Marcaria,3928,45.124518,10.533651
900246,Mede,4053,45.095009,8.742594
900247,Melegnano,4069,45.356321,9.319271
900248,Melzo,4086,45.502191,9.420653
900249,Merone,4110,45.781374,9.243772
900250,Milano Certosa,4838,45.507019,9.133863
900251,Milano Greco Pirelli,7156,45.51272,9.214456
900252,Milano Lambrate,7156,45.484933,9.237333
900253,Milano Porta Garibaldi,4188,45.484917,9.187683
900254,Mi.P.Genova,4188,45.453379,9.169303
900255,Milano Porta Vittoria,4188,45.459579,9.21813
900256,Milano S. Cristoforo,2414,45.442404,9.130258
900257,Corsico,2414,45.434688,9.105156
900258,S. Cassiano Valchiavenna,6411,46.275438,9.397419
900259,Sannazzaro,6768,45.10554,8.905149
900260,Gaggiano,3030,45.408827,9.031117
900261,Lomello,3726,45.117276,8.799121
900262,Magenta,3832,45.468204,8.880633
900263,Verceia,8099,46.202832,9.458412
900264,Malpensa Aeroporto T1,8381,45.627904,8.711085
900265,Vanzago Pogliano,8011,45.525216,8.995531
900266,Milano Dateo,4188,45.462341,9.209277
900267,Bisuschio Viggiu,732,45.870658,8.887544
900268,Arcene,306,45.577162,9.606652
900269,Levate,3650,45.626856,9.629984
900270,Stezzano,7368,45.659219,9.645288
900271,Pozzuolo Martesana,5725,45.510567,9.459096
900272,Pregnana Milanese,5769,45.511868,9.003943
900273,Edolo,2657,46.179241,10.330333
900274,Iseo,3446,45.659518,10.047464
900275,Bornato - Calino,1926,45.590595,10.032942
900276,Regoledo,617,46.030574,9.292106
900277,Renate-Veduggio,5927,45.728304,9.279834
900278,Robbio,6030,45.293542,8.597051
900279,Milano Bovisa Fnm,4838,45.502993,9.159235
900280,Milano Lancetti,4188,45.492632,9.175832
900281,Milano Porta Romana,4188,45.445844,9.213128
900282,Milano Venezia,4188,45.471121,9.201889
900283,Tresenda-Aprica-Teglio,7472,46.162082,10.083754
900284,Trezzano S.N.,7764,45.422203,9.071196
900285,Valmadrera,7988,45.846439,9.368183
900286,Voghera,8388,44.9978,9.007942
900287,Sairano,8440,45.138858,9.046868
900288,Cantu`,1320,45.752316,9.130321
900289,Carate-Calo`,7814,45.676451,9.252304
900290,Segrate,7064,45.480702,9.298873
900291,Busto Arsizio,1064,45.616164,8.865031
900292,Camnago-Lentate,558,45.668425,9.133451
900293,Canegrate,1285,45.569235,8.926593
900294,Cava Manara,1893,45.144867,9.115332
900295,Mi P.Gar.Sott.,4188,45.484228,9.185122
900296,Milano Rogoredo,6478,45.433866,9.2391
900297,Dubino,2646,46.172802,9.432188
900298,Tirano,7544,46.21539,10.166961
900299,Paratico Sarnico,6952,45.662478,9.961417
900300,Capriolo,1379,45.64556,9.933806
900301,Barbianello,523,45.07263,9.204165
900302,Bergamo,659,45.690271,9.675082
900303,Ospitaletto Travagliato,5011,45.546042,10.074363
900304,S. Pietro Berbenno,653,46.161347,9.740491
900305,Villamaggiore,7223,45.32045,9.190674
900306,Villanova D`Ardenghi,8293,45.156982,9.037176
900307,Villasanta,8326,45.603434,9.304923
900308,Villetta Malagnino,3865,45.137019,10.111943
900309,Visano,8357,45.31531,10.363098
900310,Vittuone Arluno,8373,45.491054,8.947299
900311,Zinasco Nuovo,8440,45.124555,8.999657
900312,Madignano,3825,45.34383,9.730179
900313,Poggiridenti-Tresivio-Piateda,5560,46.166888,9.93382
900314,Ponte D`Adda,5519,45.184352,9.790737
900315,Ponte In Valtellina,5619,46.162631,9.975895
900316,Ponte S.Marco - Calcinato,1129,45.473788,10.409018
900317,Ponte S.Pietro,5625,45.69916,9.584322
900318,Sori,7284,44.369795,9.106006
900319,Taggia Arma,7425,43.840764,7.835604
900320,Varazze,8020,44.356842,8.566682
900321,Ventimiglia,8086,43.792561,7.610224
900322,Arcola,313,44.118651,9.914649
900323,Airole,88,43.870494,7.552757
900324,Alassio,97,44.007889,8.17112
900325,Albenga,113,44.04722,8.221663
900326,Bogliasco,756,44.379207,9.066042
900327,Bordighera,817,43.778313,7.663504
900328,Borghetto Santo Spirito,828,44.109006,8.242346
900329,Borgo Fornari Per Voltaggio,1051,44.588379,8.938295
900330,Busalla,1051,44.57558,8.943611
900331,Camogli San Fruttuoso,1201,44.348166,9.156743
900332,Campoligure Masone,1225,44.530909,8.700878
900333,Cavi,3594,44.29354,9.37251
900334,Celle,1952,44.34246,8.542626
900335,Ceriale,2003,44.098922,8.234216
900336,Cervo San Bartolomeo,2049,43.923901,8.109704
900337,Cogoleto,2251,44.389762,8.643906
900338,Corniglia,8114,44.119938,9.711051
900339,Deiva Marina,2570,44.217306,9.519022
900340,Finale Ligure Marina,2817,44.169116,8.34033
900341,Framura,2961,44.201903,9.555169
900342,Genova Acquasanta,4068,44.458757,8.773197
900343,Genova Bolzaneto,1978,44.459208,8.900193
900344,Genova Borzoli,3131,44.434704,8.866648
900345,Genova Granara,4068,44.442055,8.823453
900346,Genova Marittima S. Limbania,3131,44.412808,8.911098
900347,Genova Nervi,756,44.381271,9.039895
900348,Genova Pegli,4068,44.426236,8.816767
900349,Genova P.Principe,3131,44.417784,8.9207
900350,Genova Pontedecimo,1978,44.494189,8.905642
900351,Genova Quarto Dei Mille,3131,44.388607,8.99597
900352,Genova Rivarolo,3131,44.435955,8.89106
900353,Genova Sampierdarena,3131,44.413102,8.887271
900354,Genova Sturla,3131,44.397977,8.981466
900355,Genova Vesima,326,44.416176,8.714099
900356,Genova Voltri,4068,44.428467,8.758163
900357,Isola Del Cantone,3452,44.646589,8.957578
900358,La Spezia Centrale,3502,44.11141,9.813906
900359,Laigueglia,3536,43.981283,8.158685
900360,Lavagna,3594,44.305677,9.346371
900361,Levanto,3649,44.174167,9.616018
900362,Loano,3704,44.122429,8.254523
900363,Mele,4068,44.472797,8.733953
900364,Mignanego,4186,44.539031,8.929951
900365,Moneglia,4341,44.242449,9.486957
900366,Monterosso,4562,44.145967,9.649009
900367,Olivetta San Michele,4908,43.878345,7.535066
900368,Piano Orizzontale Dei Giovi,4186,44.530912,8.9192
900369,Pietrabissara,3452,44.658637,8.926969
900370,Pieve Ligure,5456,44.372644,9.090975
900371,S. Stefano Di Magra,6921,44.156857,9.915202
900372,Imperia,3421,43.88051,8.019182
900373,Genova Costa Di Sestri Ponente,1978,44.433535,8.84553
900374,Genova Quinto Al Mare,756,44.385184,9.020514
900375,Genova Via Di Francia,3131,44.411126,8.90192
900376,Bivio/Pc Arcola,1792,44.074771,10.015803
900377,Borgio Verezzi,832,44.157722,8.30908
900378,Genova P. Principe Sotterranea,3131,44.414803,8.918041
900379,Cairo Montenotte,1109,44.394747,8.278786
900380,Cengio,1966,44.390798,8.191824
900381,Albisola,128,44.33469,8.512092
900382,Savona Marittima,6992,44.308777,8.488243
900383,Spotorno Noli,7346,44.226528,8.410932
900384,Vallecrosia,7965,43.787619,7.634997
900385,Vernazza,8114,44.134963,9.684804
900386,Zoagli,8441,44.33546,9.269126
900387,Bragno,1406,44.371679,8.304473
900388,Genova Cornigliano,3131,44.414752,8.865035
900389,Pietra Ligure,5418,44.145345,8.277403
900390,S. Margherita Ligure Portofino,6878,44.33676,9.216673
900391,Genova Pra,4068,44.426874,8.785356
900392,Genova Sestri Ponente,3131,44.422374,8.847707
900393,Genova Brignole,3131,44.407213,8.947553
900394,Pontetto,756,44.377309,9.07696
900395,Mulinetti,5895,44.362614,9.129499
900396,Chiavari,2099,44.315156,9.322464
900397,Riva Trigoso,1559,44.26391,9.429277
900398,Bonassola,799,44.184867,9.582673
900399,Manarola,5980,44.109904,9.727401
900400,Ferrania,182,44.365136,8.328885
900401,Maschio,5836,44.326605,8.436686
900402,Vezzano Ligure,8167,44.127081,9.88928
900403,Ponzano Magra,6921,44.136227,9.934115
900404,Genova S.Biagio,1978,44.484399,8.900854
900405,Pont,5609,45.420436,7.60442
900406,Dego,2569,44.448003,8.308469
900407,Piana,5373,44.486383,8.308796
900408,Ca` Di Boschetti,3502,44.117925,9.857449
900409,Rocchetta Cairo,2569,44.427477,8.295356
900410,La Spezia Migliarina,3502,44.123391,9.84028
900411,La Spezia Marittima,3502,44.110694,9.837445
900412,Sarzana,6962,44.108865,9.960657
900413,Altare,182,44.336169,8.332753
900414,Arenzano,326,44.403089,8.678322
900415,Bevera,8086,43.825303,7.579157
900416,Quiliano Vado,7891,44.279933,8.435562
900417,Rapallo,5869,44.351398,9.231282
900418,Recco,5895,44.361215,9.146788
900419,Riomaggiore,5980,44.105203,9.729105
900420,Ronco Scr.,6242,44.614537,8.949421
900421,Rossiglione,6274,44.566955,8.668051
900422,San Giuseppe Di Cairo,1406,44.370096,8.28864
900423,Sanremo,6771,43.821269,7.766693
900424,Santuario,5836,44.34607,8.435756
900425,Savona,6992,44.306892,8.470259
900426,Sestri Levante,7158,44.27626,9.397651
900427,S.Silvestro,4331,45.19366,8.148095
900428,Settimo,7168,45.139834,7.769335
900429,Sezzadio,7175,44.800082,8.549772
900430,Chiusano Cossombrone,2127,44.985034,8.128822
900431,Collegno,2279,45.078854,7.574131
900432,Priola,5794,44.248694,8.023429
900433,Rovasenda,6286,45.537291,8.317376
900434,S. Ambrogio,6790,45.101161,7.360933
900435,Isola D`Asti,3451,44.830605,8.175113
900436,Manta,3906,44.620887,7.494166
900437,Torre S.Giorgio,7652,44.737375,7.525461
900438,Tronzano,7827,45.342929,8.168395
900439,Vaprio D`Agogna,8014,45.599085,8.536862
900440,Borgo S.Martino,846,45.087083,8.520661
900441,Cambiano Santena,1182,44.966491,7.773225
900442,Villanova,8294,44.963159,7.947136
900443,Torino Porta Susa,7581,45.075906,7.667673
900444,Marano Ticino,3923,45.629485,8.626172
900445,Meina,4064,45.794389,8.535452
900446,Merana,4094,44.519368,8.298327
900447,Mercenasco,4102,45.353436,7.886405
900448,Villastellone,8330,44.920531,7.749572
900449,Pieve Vergonte,5462,46.009783,8.276298
900450,Borgo San Dalmazzo,842,44.326249,7.486111
900451,Bruzolo,1015,45.131032,7.201497
900452,Casaleggio,1513,45.491298,8.490369
900453,Cassine,1612,44.751513,8.533613
900454,Castelletto Ticino,1737,45.710757,8.638259
900455,Castello D`Annone,1753,44.878742,8.312724
900456,Castellazzo Casalcermelli,1725,44.843839,8.589645
900457,Rovasenda Alta,6286,45.537368,8.316722
900458,Buronzo,1049,45.47179,8.2667
900459,Caluso,1162,45.303194,7.902568
900460,Candia Canavese,1279,45.329824,7.891819
900461,Cavallermaggiore,1901,44.708147,7.692108
900462,Cercenasco,1984,44.864897,7.495302
900463,Roccagrimalda,6052,44.675247,8.656154
900464,San Giacomo,7199,44.687745,8.663185
900465,Torino Dora,7581,45.090085,7.677853
900466,Dormelletto,2626,45.7233,8.581906
900467,Eca Nasago`,1363,44.160769,7.965137
900468,Terzo Montabone,7520,44.671932,8.428705
900469,Torino Lingotto,4784,45.0266,7.657469
900470,Torino S. Paolo,7581,45.054519,7.639557
900471,Torino Smistamento Nord,7581,45.042785,7.666626
900472,Torino Stura,3912,45.121932,7.713202
900473,Tonco Alfiano,7568,45.012659,8.216858
900474,Torino P.Nuova,7581,45.060969,7.67747
900475,Torrazza P.,7628,45.211855,7.970255
900476,Carbonara Scrivia,1401,44.860173,8.853772
900477,Alba,99,44.697713,8.030629
900478,Asti,398,44.89479,8.208112
900479,Bivio Madonna Dell`Olmo,2528,44.414078,7.546234
900480,Beaulard,533,45.046495,6.759713
900481,Morano Sul Po,4624,45.170793,8.366168
900482,Mussotto,99,44.713227,8.015194
900483,Omegna Crusinallo,1504,45.898138,8.413929
900484,Beura Cardezza,694,46.068341,8.289627
900485,Madonna Della Scala,1182,44.993686,7.780994
900486,Torino Orbassano Fascio Sud,606,45.032898,7.576125
900487,Villafranca C.,8269,44.908916,8.043692
900488,Villafranca P.,8273,44.786739,7.510077
900489,Vogogna Ossola,8390,46.005883,8.294664
900490,Monastero Pratavecchi,1053,44.484517,7.44679
900491,Felizzano,2759,44.893367,8.437155
900492,Pogliola,6044,44.399796,7.75057
900493,Pombia,5596,45.649547,8.637037
900494,Pontecurone,5631,44.962014,8.929717
900495,Ponti,5642,44.629979,8.365262
900496,Ponzana,1525,45.402685,8.522689
900497,Portacomaro,5665,44.957169,8.224345
900498,Porto Varallo Pombia,8016,45.677697,8.638383
900499,Solero,7245,44.915886,8.51043
900500,Strambino,7382,45.382508,7.887955
900501,Susa,7415,45.138622,7.052311
900502,Ghislarengo,3200,45.526006,8.379453
900503,Giarole,3208,45.056125,8.5609
900504,Magliano Crava Morozzo,3838,44.445259,7.777852
900505,S. Germano Vercellese,6504,45.353603,8.249958
900506,S.Giorgio Casale,6528,45.101495,8.412858
900507,S.Giuliano Piemonte,4453,44.890543,8.760933
900508,Pocapaglia,5533,44.701066,7.892496
900509,Baveno,599,45.909105,8.502121
900510,Biella Chiavazza,714,45.568084,8.066787
900511,Moretta,4637,44.765514,7.530303
900512,Nibbia,6685,45.481363,8.557993
900513,Nizza Monferrato,4795,44.772905,8.361146
900514,None,4819,44.938011,7.540068
900515,Pc. Meana,4050,45.124481,7.059748
900516,Pertengo,5291,45.233305,8.426739
900517,Piedimulera,5413,46.024348,8.261237
900518,Cuneo Gesso,2528,44.394234,7.556017
900519,Cureggio,2536,45.672538,8.456282
900520,Varallo Pombia,8016,45.670032,8.620047
900521,Varallo Sesia,8015,45.815227,8.256606
900522,Verbania-Pallanza,8092,45.943821,8.47224
900523,Vercelli,8100,45.329909,8.416028
900524,Vergnasco,2024,45.489282,8.091687
900525,Vernante,8111,44.244639,7.535986
900526,Verolengo,8119,45.193107,7.969511
900527,Verzuolo,8154,44.598767,7.48724
900528,Vespolate,8158,45.351517,8.671947
900529,Vicoforte San Michele,6638,44.37404,7.894687
900530,Vigliano Candelo,8207,45.557517,8.108475
900531,Vigliano D`Asti,8208,44.827335,8.218271
900532,Vignale,4835,45.478989,8.613132
900533,Vigone,8221,44.846923,7.491123
900534,Villadossola,8267,46.064151,8.264675
900535,Luserna S. Giovanni,3797,44.815842,7.246902
900536,Maddalene,4399,44.518734,7.648022
900537,Madonna Del Pilone,3942,44.695347,7.747639
900538,Margarita,3946,44.380082,7.685738
900539,Mergozzo,4106,45.961303,8.440881
900540,Pinerolo Olimpica,5477,44.893325,7.349043
900541,Crescentino,2492,45.194302,8.107175
900542,Cressa Fontaneto,2497,45.646331,8.498435
900543,Cuneo,2528,44.387914,7.536235
900544,Cunico Scandeluzza,2529,45.036947,8.11007
900545,Cuzzago,276,45.993682,8.373989
900546,Domodossola,2617,46.115429,8.296684
900547,Domo Ii,694,46.071396,8.286899
900548,Dormelletto Paese,2626,45.730032,8.574324
900549,Dronero,2642,44.464974,7.423245
900550,Exilles,2697,45.08999,6.927344
900551,Fara,2736,45.550556,8.458049
900552,Farigliano,2741,44.513337,7.90947
900553,Nichelino,4784,44.99132,7.642068
900554,Niella,4790,44.415377,7.926365
900555,Novara,4835,45.451376,8.624895
900556,Nucetto,4852,44.338871,8.061386
900557,Olcenengo,4890,45.34147,8.310096
900558,Oleggio,4892,45.598029,8.632586
900559,Omegna,4922,45.87179,8.413291
900560,Ornavasso,4962,45.970296,8.415892
900561,Orta Miasino,4179,45.795865,8.421217
900562,Oulx Cesana Claviere Sestriere,5032,45.038789,6.831432
900563,Oviglio,5035,44.859537,8.494998
900564,Ozzano Monferrato,5042,45.107581,8.372296
900565,Palazzolo Vercellese,5112,45.189004,8.232787
900566,Pallanzeno,5145,46.043533,8.260645
900567,Torre Pellice,7651,44.818929,7.225901
900568,Trappa,3091,44.185375,7.994435
900569,Trinita` Bene Vagienna,7806,44.504656,7.752647
900570,Trino Vercellese,7809,45.190066,8.294093
900571,Trofarello,7821,44.980471,7.735206
900572,Valenza,7933,45.023527,8.625808
900573,Valmadonna,1736,44.972588,8.610667
900574,Livorno Ferraris,3699,45.283402,8.073493
900575,Limone,3673,44.203799,7.577912
900576,Rocchetta Tanaro Cerro,2028,44.875574,8.351402
900577,Rodallo,1162,45.278714,7.878025
900578,Romagnano Sesia,6216,45.629888,8.384581
900579,Rosta,6275,45.078397,7.463963
900580,S.Anna Robella,4601,45.074464,8.08568
900581,S. Antonino Di Saluggia,6393,45.253967,8.039728
900582,S. Antonino Vaie,6820,45.109469,7.275931
900583,S.Benigno Di Cuneo,1967,44.461002,7.572712
900584,S. Damiano D`Asti,6467,44.878914,8.125956
900585,Pessione,6000,44.965132,7.841321
900586,Pettenasco,5357,45.820498,8.406802
900587,Pianfei,5386,44.385228,7.717109
900588,Pievetta,5794,44.257449,8.021744
900589,Pinerolo,5477,44.887673,7.337402
900590,Piscina Di Pinerolo,5507,44.921744,7.425482
900591,Bergamasco,658,44.819891,8.461447
900592,Bianze`,704,45.309488,8.115523
900593,Bibiana,710,44.809941,7.285727
900594,Mombaldone Roccaverano,4305,44.569891,8.332781
900595,Mombaruzzo,4308,44.76235,8.441006
900596,Momo,4313,45.574646,8.55689
900597,Moncalieri,4328,44.998187,7.678027
900598,Moncalvo,4329,45.059463,8.261905
900599,Monchiero Dogliani,4332,44.571815,7.917635
900600,Mondovi`,4339,44.398255,7.816339
900601,Mongardino,4347,44.84161,8.207411
900602,Montalto Dora,4394,45.490309,7.858986
900603,Montanaro,4397,45.232674,7.858331
900604,Montechiaro D`Asti,4463,44.999849,8.10982
900605,Montechiaro Denice,2577,44.600827,8.352185
900606,Montegrosso,4506,44.818465,8.239171
900607,Fossano,2948,44.550231,7.717971
900608,Gamalero,3069,44.817476,8.543427
900609,Moncalieri Sangone,4328,45.000393,7.667991
900610,Santhia`,6913,45.363726,8.180093
900611,Penango,5259,45.032254,8.235138
900612,Monteu Da Po,4581,45.158353,8.022925
900613,Monticello D`Alba,4597,44.703736,7.965002
900614,Montiglio Murisengo,4601,45.067664,8.106913
900615,Narzole,4752,44.598377,7.881597
900616,Neive,4764,44.723048,8.121071
900617,Calamandrana,1113,44.738986,8.331572
900618,Caltignaga,1158,45.519167,8.591602
900619,Prato Sesia,5752,45.646472,8.370476
900620,Premosello Chiovenda,5777,46.002188,8.326649
900621,Quarona,5826,45.763547,8.266603
900622,Quincinetto,5837,45.567295,7.809711
900623,Racconigi,5849,44.771179,7.685681
900624,Robilante,6036,44.296496,7.510906
900625,Roccaciglie`,6040,44.425831,7.95274
900626,Roccadebaldi,6044,44.410446,7.780449
900627,Roccavione,6105,44.314445,7.485361
900628,Gozzano,3293,45.741039,8.438726
900629,Gravellona Toce,3318,45.934051,8.428346
900630,Grignasco,3336,45.683288,8.332913
900631,Incisa Scapaccino,3424,44.80052,8.388468
900632,Ivrea,3481,45.461542,7.876348
900633,Lauriano,3590,45.160761,7.998531
900634,Lesa,3636,45.833042,8.566471
900635,Baldichieri,488,44.899204,8.091198
900636,Balzola,501,45.173985,8.402174
900637,Bandito,6761,44.722075,7.819452
900638,Bastia Mondovi`,588,44.439398,7.891671
900639,Bazzana,1776,44.777094,8.401557
900640,Beinette,607,44.36782,7.644884
900641,Belgirate,614,45.843337,8.570821
900642,Bellinzago,623,45.566681,8.627652
900643,S. Paolo Solbrito,6662,44.951753,7.975779
900644,S.Sebastiano Po,6715,45.167102,7.953781
900645,S.Stefano Belbo,6916,44.71714,8.241233
900646,S.Vittoria,6906,44.69561,7.916909
900647,Salbertrand,6355,45.073478,6.887428
900648,Sale Langhe,6361,44.392425,8.077468
900649,Saliceto,6383,44.404437,8.172887
900650,Saluggia,6393,45.23443,8.017112
900651,Salussola,6394,45.44438,8.115195
900652,Sandigliano,6759,45.519652,8.081531
900653,Sanfre`,6761,44.74799,7.796793
900654,Comignago,2325,45.714296,8.566362
900655,Condove,2346,45.106689,7.317022
900656,Savigliano,6982,44.651337,7.663748
900657,Scalenghe,7000,44.89018,7.490745
900658,Serralunga Cereseto,1997,45.100914,8.30742
900659,Serravalle D`Asti,7164,44.948019,8.14808
900660,Settime Cinaglio Mombarone,7164,44.966229,8.128853
900661,Settimo Tavagnasco,7458,45.546214,7.825189
900662,Sillavengo,7198,45.521303,8.444987
900663,Sizzano,7224,45.573834,8.436024
900664,Sommariva Bosco,7261,44.770754,7.777086
900665,Spigno,7325,44.539437,8.317924
900666,Spinetta,3006,44.882378,8.683146
900667,Stresa,7386,45.884486,8.531454
900668,Strevi,7387,44.697771,8.525525
900669,Suno,7410,45.620435,8.519344
900670,Lesegno,3637,44.385891,7.94266
900671,Fontanetto Po,2895,45.191238,8.188697
900672,Cossato,2448,45.564216,8.175964
900673,Costigliole (Motta Di),6602,44.807559,8.145712
900674,Costigliole D`Asti,2467,44.754882,8.20477
900675,Costigliole Saluzzo,2468,44.570196,7.482075
900676,Garbagna,3084,45.385552,8.66627
900677,Garessio,3091,44.199088,8.015214
900678,Gattinara,3106,45.611523,8.364288
900679,Ghemme,3196,45.595882,8.417135
900680,Castell`Alfero,1707,44.986347,8.220882
900681,Castelletto Busca,1053,44.501319,7.463939
900682,Castellino Tanaro,1746,44.41657,7.974321
900683,Castelnuovo Belbo,1776,44.798127,8.42516
900684,Castelrosso,8119,45.201802,7.932162
900685,Cavagnolo Brusasco,1897,45.153655,8.047534
900686,Centallo,1967,44.496223,7.591035
900687,Cervignasco,7652,44.699669,7.518644
900688,Bricherasio,969,44.824336,7.307513
900689,Briona,979,45.538568,8.479541
900690,Brozolo,998,45.121299,8.05893
900691,Bruno,1008,44.797947,8.439639
900692,Busca,1053,44.520585,7.481589
900693,Bussoleno,1063,45.139631,7.144819
900694,Arquata Scrivia,363,44.692533,8.885342
900695,Ceva,2073,44.389861,8.031958
900696,Cherasco,2083,44.65261,7.867211
900697,Chieri,2103,45.007008,7.827077
900698,Chiomonte,2114,45.119876,6.988716
900699,Chivasso,2133,45.193637,7.889666
900700,Cocconato,2238,45.082926,8.070145
900701,Avigliana,429,45.085276,7.401096
900702,Bivio Castelrosso,8119,45.201871,7.932861
900703,Bivio Sesia,8100,45.338661,8.441797
900704,Bagnasco,464,44.303264,8.046132
900705,Biella S.Paolo,714,45.557334,8.067541
900706,Bistagno,731,44.659256,8.372057
900707,Bolzano Novarese,791,45.759357,8.440754
900708,Borgo Lavezzaro,859,45.318783,8.703242
900709,Borgo Revel,4581,45.189827,8.02021
900710,Borgo Ticino,848,45.691943,8.602483
900711,Borgo Vercelli,855,45.359252,8.461474
900712,Borgofranco,858,45.514775,7.854612
900713,Borgomanero,861,45.701054,8.468093
900714,Borgone,865,45.123191,7.236037
900715,Borgoratto,867,44.835999,8.538182
900716,Borgosesia,872,45.716798,8.28239
900717,Bra,918,44.693556,7.848643
900718,Brandizzo,926,45.178915,7.841218
900719,Breil Sur Roya,4908,43.890267,7.530915
900720,Candelo,1278,45.547433,8.100103
900721,Candiolo,1284,44.961155,7.598973
900722,Candoglia Ornavasso,4962,45.977489,8.419715
900723,Canelli,1286,44.716716,8.294544
900724,Cantalupo,867,44.864787,8.551357
900725,Carentino,1417,44.831303,8.470474
900726,Carisio,1431,45.403164,8.21249
900727,Carmagnola,1439,44.846944,7.72797
900728,Carpignano Sesia,1462,45.528934,8.422898
900729,Carru` Clavesana,1475,44.479548,7.891414
900730,Casale Monferrato,1509,45.133928,8.460292
900731,Casale Popolo,1509,45.160434,8.44055
900732,Castagnole Delle Lanze,1622,44.749341,8.152836
900733,Prasco Cremolino,5740,44.648906,8.55001
900734,Predosa,5767,44.750978,8.651132
900735,Rigoroso,363,44.670577,8.896487
900736,Rio Secco,5767,44.722275,8.658805
900737,Rivalta Scrivia,8282,44.854158,8.809846
900738,Serravalle Scrivia,7136,44.72393,8.858548
900739,Stazzano Serravalle,7136,44.719374,8.865301
900740,Tortona,7683,44.900126,8.861777
900741,Villalvernia,8282,44.810592,8.855655
900742,Visone,8361,44.661951,8.500198
900743,Agliano Castelnuovo Calcea,59,44.786108,8.267723
900744,Airasca,86,44.928093,7.483536
900745,Alice Belcolle,157,44.722636,8.440076
900746,Alpignano,176,45.091077,7.523745
900747,Arona,355,45.755392,8.559075
900748,Acqui Terme,41,44.67407,8.474482
900749,Alessandria,140,44.909091,8.606498
900750,Deviatoio Estremo Tortona,7683,44.895759,8.840548
900751,Cassano Spinola,1604,44.762631,8.858833
900752,Castelspina Portanova,1491,44.796662,8.62203
900753,Donna,890,44.818902,8.712792
900754,Frugarolo Boscomarengo,3006,44.841687,8.682724
900755,Molare,4290,44.621975,8.609904
900756,Novi Ligure,4848,44.762521,8.787289
900757,Ovada,5033,44.630377,8.632301
900758,Ovada Nord,5033,44.646656,8.644633
900759,Pozzolo Formigaro,5720,44.797395,8.782521
900760,Donnaz,2622,45.602713,7.769563
900761,Arvier,375,45.704259,7.166681
900762,Aosta Viale Europa,3328,45.733294,7.297371
900763,Avise,433,45.706296,7.131285
900764,Villeneuve,8337,45.706648,7.213481
900765,Pont Saint Martin,5610,45.589834,7.795024
900766,Nus,4865,45.738786,7.4712
900767,Verres,3475,45.659822,7.690012
900768,Derby,3501,45.730289,7.087018
900769,Sarre,6956,45.717919,7.258468
900770,Montjovet,4604,45.704586,7.666871
900771,Morgex,4640,45.757055,7.033898
900772,Pre` Saint Didier,5759,45.7636,6.99105
900773,Quart,5828,45.741372,7.414645
900774,Hone Bard,3411,45.613918,7.741345
900775,La Salle,3501,45.744637,7.061987
900776,Saint Pierre,6341,45.708146,7.229338
900777,Chambave,2077,45.744163,7.557301
900778,Chatillon Saint Vincent,2082,45.7434,7.619309
900779,Aosta,278,45.73407,7.322424
900780,Aosta Istituto,278,45.732938,7.303076
900781,Greccio,3324,42.462872,12.777009
900782,Grotte S.Stefano,8369,42.51512,12.169372
900783,Isola Liri,3455,41.681712,13.581088
900784,Itri,3478,41.271328,13.545549
900785,La Giustiniana,2923,41.985243,12.403457
900786,La Storta,2923,42.001748,12.381254
900787,Lanuvio,3560,41.672211,12.690885
900788,Latina,3580,41.538372,12.945888
900789,Bagni Di Tivoli,3404,41.949593,12.722208
900790,Bassano Romano,585,42.212444,12.152302
900791,Salone,2900,41.915253,12.636215
900792,Sassone,2134,41.783777,12.625832
900793,Sezze Romano,7176,41.495542,13.038452
900794,Sora,7272,41.716618,13.618601
900795,Stimigliano,7373,42.289811,12.568632
900796,Ferentino-Supino,2765,41.6564,13.246971
900797,Fiumicino Aeroporto,2857,41.793673,12.251728
900798,Formia-Gaeta,2924,41.258773,13.605996
900799,Corchiano,2373,42.361351,12.341846
900800,Castel Madama,1660,41.988389,12.864938
900801,Castel S.Angelo,1674,42.379666,13.017612
900802,Cecchina,338,41.692029,12.650992
900803,Ceprano-Falvaterra,2727,41.523962,13.523481
900804,Ladispoli-Cerveteri,3526,41.953502,12.081675
900805,Cesano Di Roma,256,42.061833,12.326669
900806,Ciampino,2134,41.804442,12.599546
900807,Cittaducale,2194,42.387764,12.94269
900808,Civita Castellana,2206,42.346593,12.453821
900809,Civitavecchia,2213,42.088287,11.79815
900810,Colle Mattia,4420,41.832756,12.728329
900811,Collevecchio,2289,42.298089,12.520546
900812,Bracciano,920,42.103667,12.173023
900813,Cancelliera,105,41.710587,12.621758
900814,Canetra,1674,42.391578,13.029159
900815,Capannelle,2134,41.830713,12.568884
900816,Caprarola,1362,42.303815,12.258238
900817,Casabianca,2134,41.788327,12.60431
900818,Cassino,1615,41.484306,13.832125
900819,Castel Bagnolo Di Orte,3052,42.400183,12.400781
900820,Acqua Acetosa,2134,41.794294,12.616449
900821,Albano Laziale,105,41.72632,12.658056
900822,Anagni-Fiuggi,3111,41.71037,13.09597
900823,Anguillara,256,42.068133,12.304978
900824,Antrodoco Borgo Velino,269,42.415393,13.076193
900825,Antrodoco Centro,269,42.409844,13.07096
900826,Anzio,275,41.4532,12.633205
900827,Aprilia,291,41.592386,12.639126
900828,Arce,305,41.583695,13.571848
900829,Arsoli,370,42.045852,13.013064
900830,Fabrica Di Roma,2702,42.334416,12.307467
900831,Deviatoio Estremo Km 2.730-Roma T.Lana,6142,41.887491,12.527216
900832,Campo Di Carne,291,41.552116,12.635125
900833,Anzio Colonia,275,41.459893,12.617442
900834,Pavona,1655,41.723897,12.61116
900835,Terracina,7501,41.29697,13.244055
900836,Viterbo Porta Fiorentina,8366,42.425237,12.106204
900837,Zagarolo,8412,41.821927,12.82692
900838,Fidene,6142,41.979773,12.508451
900839,Pomezia - S.Palomba,5597,41.706171,12.573611
900840,Tarquinia,7447,42.239463,11.727009
900841,Gallese In Teverina,3052,42.380901,12.439732
900842,La Fiora,7501,41.331487,13.200365
900843,Mandela-Sambuci,3892,42.016212,12.921976
900844,S. Eurosia,8051,41.675927,12.755105
900845,Santa Marinella,6897,42.035892,11.863122
900846,S.Martino Al Cimino,8366,42.382043,12.108104
900847,Poggio Fidoni,2357,42.395811,12.795429
900848,Morolo,4655,41.667018,13.194557
900849,Cotilia,2194,42.372602,12.96871
900850,Velletri,8051,41.682421,12.780864
900851,Vetralla,8163,42.304619,12.089137
900852,Vico Matrino,1359,42.278028,12.121681
900853,Vigna Di Valle,920,42.076863,12.210716
900854,Villa Bonelli,6142,41.8477601,12.455223
900855,Villa Claudia,275,41.484326,12.61709
900856,Lunghezza,2900,41.923253,12.667212
900857,Maccarese,2857,41.879372,12.23695
900858,Magliana,6142,41.834235,12.431017
900859,Manziana-Canale Monterano,3910,42.128246,12.134934
900860,Marino,3957,41.768961,12.655994
900861,Minturno,4241,41.257621,13.720664
900862,Fara Sabina,2786,42.155546,12.648323
900863,Nuovo Salario,6142,41.956195,12.510317
900864,Oriolo,4956,42.166825,12.138499
900865,Orte,4978,42.43728,12.408986
900866,Padiglione,4777,41.513518,12.629476
900867,Torre In Pietra-Palidoro,2042,41.92432,12.183116
900868,Torricola,2134,41.809538,12.557716
900869,Tre Croci,8163,42.331525,12.086159
900870,Contigliano,2357,42.412072,12.779144
900871,Lido Di Lavinio,275,41.500599,12.625926
900872,Ronciglione,6237,42.282499,12.219437
900873,Roviano,6300,42.026476,12.991119
900874,Nettuno,4777,41.459558,12.662123
900875,Monte S.Biagio,4424,41.345967,13.347037
900876,Monterotondo,4566,42.06409,12.595753
900877,Frascati,2975,41.806881,12.677962
900878,Frosinone,3003,41.625333,13.328728
900879,Muratella,6142,41.826182,12.412696
900880,Civitavecchia Viale Della Vittoria,2213,42.086518,11.800599
900881,Campoleone,291,41.642396,12.648341
900882,Rieti,5961,42.405918,12.862596
900883,Riofreddo,5976,42.060704,13.021419
900884,Roma Casilina,6142,41.87669,12.537297
900885,Roma Monte Mario,6142,41.939088,12.421732
900886,Gemelli,6142,41.927813,12.427797
900887,Roma Prenestina,6142,41.897571,12.545803
900888,Roma S.Filippo Neri,6142,41.950262,12.412414
900889,Rocca Di Fondi,269,42.39799,13.095825
900890,Roccasecca,6096,41.526377,13.645814
900891,S. Maria Delle Mole,2134,41.774417,12.606225
900892,Sgurgola,7179,41.687018,13.146199
900893,Crocicchie,256,42.0559,12.238888
900894,Terria,3324,42.436334,12.782816
900895,Ponte Di Nona,1987,42.061563,13.581585
900896,Vigna Clara,6142,41.96827,12.409026
900897,Roma Tuscolana,6142,41.879384,12.523505
900898,Valmontone,7989,41.774291,12.923696
900899,Labro Moggio,2293,42.506131,12.746224
900900,Sorgenti Del Peschiera,2340,42.36428,12.996973
900901,Montalto Di Castro,4393,42.334623,11.595085
900902,Civitavecchia M.Ma,2213,42.099843,11.78438
900903,Santa Severa,6897,42.020645,11.969077
900904,Roma Aurelia,6142,41.88344,12.395271
900905,Madonna Del Piano,1359,42.259963,12.166357
900906,Gallese Bassanello,3052,42.3798,12.371998
900907,Poggio Mirteto,5544,42.242187,12.633043
900908,Sette Bagni,5948,42.006438,12.520156
900909,Piana Bella Montelibretti,4566,42.105159,12.632938
900910,Sipicciano,408,42.546495,12.254318
900911,Montefiascone,4483,42.520268,12.050448
900912,Viterbo Porta Romana,8366,42.411974,12.110482
900913,Roma S.Pietro,6142,41.896143,12.454497
900914,Ponte Galeria,2857,41.818349,12.344733
900915,Roma Trastevere,6142,41.872279,12.466162
900916,Roma Ostiense,6142,41.87265,12.483917
900917,Roma Termini,6142,41.900636,12.502026
900918,Parco Leonardo,2857,41.79932,12.29543
900919,Guidonia-Montecelio-S.Angelo,3404,41.993405,12.725681
900920,Marcellina-Palombara,3930,41.999609,12.79134
900921,Vicovaro,8191,42.010183,12.888294
900922,Cisterna Di Latina,2187,41.586511,12.827538
900923,Priverno Fossanova,5796,41.421853,13.186406
900924,Fondi - Sperlonga,2884,41.337663,13.424893
900925,Colleferro-Segni-Paliano,2277,41.740062,13.00299
900926,Castro-Pofi,1863,41.533014,13.410741
900927,Quattro Venti,6142,41.880145,12.459731
900928,Fiera Di Roma,2857,41.811863,12.320622
900929,Serenissima,2900,41.914168,12.622964
900930,Pineto,5478,41.909222,12.438385
900931,Roma S.Lorenzo,6142,41.893476,12.522057
900932,Roma Tiburtina Piazzale Est,6142,41.910903,12.530749
900933,Dev.Int. Dd/Av,2804,42.274228,12.607523
900934,Bivio/P.C. Sgurgola,6547,41.527485,13.547101
900935,Marechiaro,275,41.470762,12.6123
900936,Marina Di Cerveteri,3526,41.979133,12.047924
900937,Villetta,1655,41.738237,12.649463
900938,Capranica,1359,42.245195,12.157194
900939,Castel Gandolfo,1655,41.746946,12.652266
900940,Ceccano,1929,41.573583,13.336417
900941,Rocca D`Evandro,6043,41.438861,13.911338
900942,Isoletta-S.Giovanni I.,6547,41.527873,13.547095
900943,Roma Tiburtina,6142,41.910903,12.530749
900944,Tivoli,7550,41.961849,12.805047
900945,Tor Sapienza,2900,41.907095,12.594489
900946,Roma Nomentana L.L.,6142,41.932935,12.523628
900947,Tor Vergata,2975,41.823224,12.666162
900948,Ipogeo Degli Ottavi,6142,41.968391,12.409026
900949,Olgiata,2923,42.01538,12.363864
900950,Appiano,6142,41.909342,12.43838
900951,Valle Aurelia,6142,41.899356,12.447667
900952,Arpino,359,41.648296,13.59959
900953,Palo Laziale,3526,41.939327,12.102739
900954,Allerona-Castel Viscardo,165,42.78502,12.035236
900955,Alviano,201,42.591917,12.259583
900956,Assisi,394,43.058921,12.585304
900957,Attigliano,408,42.518054,12.294761
900958,Cannara,1296,43.019591,12.628709
900959,Capodacqua Pieve Fanonica,8001,43.026769,12.7541
900960,Castiglion Del Lago,1836,43.123195,12.032077
900961,Scanzano Belfiore,2878,42.983918,12.737692
900962,Terni,7499,42.570768,12.651091
900963,Terni Cospea,7499,42.549615,12.625075
900964,Foligno,2878,42.954261,12.711096
900965,Pm Panicale Sanfatucchio,5049,43.065535,12.056347
900966,Passignano Sul Trasimeno,5209,43.188324,12.133128
900967,Pc Allerona,165,42.804432,12.016229
900968,Giuncano,7499,42.647802,12.637694
900969,Gualdo Tadino,3377,43.233475,12.7672
900970,Baiano Di Spoleto,7341,42.726238,12.663615
900971,Baschi-Montecchio,574,42.68685,12.203496
900972,Bastia,589,43.07133,12.547735
900973,Pc Orvieto,6142,41.979641,12.508456
900974,Nera Montoro,4750,42.497855,12.476587
900975,Campello,1211,42.822814,12.761253
900976,Perugia,5296,43.103808,12.375567
900977,Perugia Ponte S.Giovanni,5296,43.091801,12.438239
900978,Monte Melino,2374,43.106303,12.249698
900979,Fossato Di Vico Gubbio,2949,43.283798,12.757258
900980,Gaifana,3377,43.181837,12.784148
900981,Orvieto,4989,42.723379,12.127412
900982,Ospedalicchio,589,43.082369,12.506572
900983,Torricella,7671,43.159149,12.188249
900984,Trevi,7753,42.8762,12.733709
900985,Tuoro Sul Trasimeno,7839,43.196631,12.0796
900986,Magione,3835,43.137356,12.202238
900987,Ellera Corciano,2374,43.094699,12.318574
900988,Narni Amelia,4750,42.53128,12.519592
900989,Nocera Umbra,4803,43.100663,12.767207
900990,Ponte Parrano Di Nocera Umbra,4803,43.137437,12.776376
900991,Spoleto,7341,42.748121,12.736142
900992,S.Giacomo Di Spoleto,1211,42.79015,12.755445
900993,Valtopina,8001,43.05689,12.755068
900994,Spello,7317,42.9844,12.668884
900995,S.Liberato,4978,42.478853,12.443006
900996,Stroncone,7390,42.517955,12.65372
900997,Marmore,365,42.547499,12.715224
900998,Citta` Della Pieve,2190,42.936221,11.971127
900999,Fabro-Ficulle,2704,42.874851,12.04123
901000,Castiglione In Teverina,1842,42.648544,12.234913
901001,Boiano,760,41.487883,14.474551
901002,Bonefro S.Croce,1488,41.710522,14.860799
901003,Carovilli-Roccasicura,1453,41.712485,14.299732
901004,Carpinone,1468,41.588038,14.326783
901005,Casacalenda Guardialfiera,1488,41.738109,14.849602
901006,Sepino,7098,41.413946,14.657456
901007,Termoli,7496,42.000623,14.992805
901008,Guglionesi Portocannone,5686,41.932026,14.986368
901009,Larino,3569,41.80015,14.918226
901010,S. Pietro Avellana-Capracotta,6671,41.76978,14.19995
901011,Campomarino,1253,41.957398,15.042416
901012,Ripabottoni S.Elia,5984,41.669666,14.844353
901013,Montenero Petacciato,5343,42.033286,14.851015
901014,Ururi Rotello,3569,41.801134,14.953072
901015,Baranello,509,41.5176,14.596314
901016,Venafro,8056,41.482975,14.048722
901017,Sessano Del Molise,7147,41.639587,14.32853
901018,Vastogirardi,8035,41.739482,14.249334
901019,Pescolanciano-Chiauci,5334,41.678996,14.341588
901020,Monteroduni,4558,41.528345,14.156514
901021,Rocca Ravindola,5715,41.521035,14.122965
901022,Vinchiaturo,8348,41.49385,14.59801
901023,Campobasso,1229,41.558137,14.66393
901024,Cantalupo Del Sannio,4248,41.5174,14.6671
901025,Campolieto Monacilioni,1249,41.642573,14.76544
901026,S.Maria Oliveto,5715,41.507208,14.096049
901027,Capriati Al Volturno,7153,41.44279,14.070664
901028,Bosco Redole,8348,41.459299,14.587884
901029,Guardiaregia,3394,41.457455,14.553753
901030,Matrice Montagano,4038,41.621321,14.699561
901031,S.Martino In Pensilis,6613,41.877211,14.984218
901032,Sesto Campano,7153,41.420005,14.088909
901033,S. Giuliano Piacentino,1822,45.070627,9.985919
901034,S.Ilario,6839,44.765795,10.450469
901035,Poggio Renatico,5548,44.767292,11.483701
901036,Noceto,4804,44.809934,10.147258
901037,Vergato,8106,44.282723,11.114386
901038,San Giovanni In Persiceto,6546,44.643151,11.189444
901039,S.Biagio,331,44.594511,11.87054
901040,Roccamurata,7991,44.532756,9.876175
901041,S.Cassiano,6445,44.143684,11.687503
901042,Osteria Nuova,1134,44.586613,11.236525
901043,Villanova Di Reggiolo,6141,44.915925,10.842455
901044,Bologna Interporto,1511,44.490404,11.274884
901045,Casteldebole,1511,44.503974,11.27456
901046,Ozzano Dell'Emilia,5041,44.450797,11.487297
901047,Casalecchio Garibaldi,1511,44.482995,11.272474
901048,Funo Centergross,1661,44.593646,11.370672
901049,Rastignano,765,44.443592,11.357617
901050,Pian Di Venola,3991,44.332136,11.188609
901051,Camposanto,1264,44.787527,11.143587
901052,Castel S.Pietro Terme,1672,44.407376,11.597681
901053,Bologna Corticella,1661,44.551985,11.35401
901054,Rimini Miramare,5955,44.030388,12.618105
901055,Bologna Ravone,765,44.510244,11.320029
901056,Posto Movimento Bolognina,1264,44.765134,11.14448
901057,Bologna C.Le/Av,765,44.50626,11.342267
901058,Reggio Emilia Av,2407,44.779886,10.744171
901059,S.Lazzaro Di Savena,6570,44.48097,11.416652
901060,Bologna Fiere,765,44.512742,11.368809
901061,Bologna Mazzini,6570,44.482284,11.376271
901062,Rimini Torre Pedrera,619,44.106987,12.508755
901063,S.Martino In Gattara,3967,44.113211,11.667077
901064,S.Nicolo',1139,45.058843,9.606443
901065,Felegara - S.Andrea Bagni,2935,44.724809,10.114523
901066,Gatteo A Mare,619,44.170691,12.432057
901067,Musiano-Pian Di Macina,5391,44.402423,11.344912
901068,S.Pietro In Casale,6679,44.697928,11.404763
901069,Salsomaggiore T.,6390,44.81866,9.988129
901070,Samoggia,277,44.567307,11.146221
901071,Sarmato,6949,45.063043,9.491116
901072,Monticelli D`Ongina,4593,45.075666,9.949036
901073,Monzuno,4622,44.322277,11.262082
901074,Cadeo,1079,44.967283,9.853181
901075,Ravenna,5881,44.419155,12.208404
901076,Reggio Emilia,5918,44.697793,10.643093
901077,Rimini Viserba,5969,44.088407,12.533785
901078,Riccione,5955,43.999218,12.658549
901079,Rimini,5969,44.064176,12.574093
901080,Riola,1644,44.229851,11.053592
901081,Rolo Novi Fabbrico,6141,44.886561,10.867882
901082,Rottofreno,6283,45.060546,9.549127
901083,Rubiera,6307,44.65618,10.780252
901084,Russi,6318,44.379011,12.03164
901085,S.Agata Sul Santerno,6783,44.436774,11.858855
901086,Santarcangelo Di Romagna,6909,44.070316,12.45454
901087,San Benedetto Sambro-Cast.Pepoli,6429,44.22866,11.19226
901088,Piacenza,5367,45.052238,9.70633
901089,Berceto,654,44.555912,9.931759
901090,Mirandola,4251,44.891638,11.111689
901091,Posto Mov. Mirandola Ozzano,5041,44.459977,11.464168
901092,Misano Adriatico,4254,43.977493,12.697121
901093,Modena,4265,44.654461,10.930373
901094,Molino Del Pallone,6406,44.100128,10.961252
901095,Montesanto,8389,44.732964,11.73652
901096,Galliera,3059,44.737738,11.441551
901097,Ostia Parmense,7991,44.520136,9.844981
901098,Ozzano Taro,4055,44.712268,10.141022
901099,Lido Di Classe-Lido Di Savio,2043,44.314546,12.292722
901100,Lugo,3775,44.414106,11.914723
901101,Marzabotto,3991,44.341237,11.207351
901102,Massalombarda,4017,44.448948,11.828068
901103,Medesano,4055,44.749265,10.140335
901104,Mezzani Rondani,1526,44.966764,10.398818
901105,Mezzano,4170,44.463,12.098501
901106,Crevalcore,2499,44.719156,11.152625
901107,Faenza,2707,44.293594,11.883268
901108,Barbiano,524,44.387263,11.878086
901109,Biagioni Lagacci,6406,44.086359,10.948257
901110,Pianoro,5391,44.380589,11.340675
901111,Pioppe Di Salvaro,3991,44.310761,11.161785
901112,Varignana,5041,44.436796,11.523078
901113,Vicofertile,2272,44.778436,10.25834
901114,Villa Cade`,1210,44.743203,10.519402
901115,Villanova D`Arda,8304,45.028291,9.993291
901116,Voltana,3019,44.540369,11.93605
901117,Ponte Della Venturina,6406,44.128589,10.990756
901118,Pontecchio Marconi,6969,44.42294,11.26919
901119,Pontelagoscuro,2773,44.873216,11.612526
901120,Pontenure,5637,45.001687,9.792103
901121,Porretta  Terme,195,44.155757,10.978039
901122,Portomaggiore,5690,44.696699,11.799785
901123,Gaibanella,2773,44.778116,11.671325
901124,Gambettola,3077,44.116718,12.327555
901125,S.Felice Sp,6486,44.834527,11.140243
901126,S.Giorgio P.,6523,44.646641,11.37901
901127,Alfonsine,150,44.512364,12.039155
901128,Posto Movimento Alseno,177,44.892903,9.990996
901129,Argenta,331,44.616867,11.841267
901130,Bagnacavallo,459,44.412138,11.969398
901131,Bologna Borgo Panigale,1511,44.515024,11.284728
901132,Bologna S.Ruffillo,6570,44.462657,11.372967
901133,Bologna C.Le,765,44.50626,11.342267
901134,Borghetto Parmense,2905,44.837198,10.1177
901135,Borgo Val Di Taro,850,44.486522,9.781489
901136,Caorso,1324,45.042048,9.868157
901137,Carbona,8106,44.246876,11.09618
901138,Carpi,1459,44.782919,10.891952
901139,Casalecchio Di Reno,1511,44.474298,11.276097
901140,Castel S.Giovanni,1668,45.063272,9.436856
901141,Castelbolognese,1633,44.325391,11.804174
901142,Castelfranco D'Emilia,1698,44.597381,11.056408
901143,Castelguelfo,2905,44.836434,10.176706
901144,Castelmaggiore,1661,44.576055,11.366901
901145,Castelvetro,1822,45.100095,9.982181
901146,Castione Dei Marchesi,2793,44.915157,10.044449
901147,Cattolica S.Giovanni Gabicce,1888,43.959931,12.745087
901148,Cervia-Milano Marittima,2043,44.258444,12.347096
901149,Brisighella,982,44.220565,11.769757
901150,Busseto,1059,44.974692,10.038909
901151,Cesena,2059,44.145449,12.24964
901152,Cesenatico,2061,44.20065,12.391186
901153,Citerna Taro,8018,44.63548,10.032939
901154,Classe,5881,44.382033,12.234995
901155,Collecchio,2272,44.755339,10.21228
901156,Colorno,2311,44.927943,10.382935
901157,Conselice,2353,44.510987,11.831949
901158,Sasso Marconi,6969,44.394939,11.254333
901159,Savignano Sul Rubicone,6985,44.095191,12.40421
901160,Selva Del Bocchetto,7250,44.62487,10.006253
901161,Silla,195,44.177652,10.980635
901162,Solarolo,7237,44.356425,11.849183
901163,Soliera Modenese,7249,44.722667,10.90601
901164,Solignano,7250,44.614024,9.98014
901165,Strada Casale,1587,44.183511,11.697496
901166,Pm Tavernelle Emilia,1134,44.575403,11.243917
901167,Ferrara,2773,44.843047,11.603594
901168,Fidenza,2793,44.86773,10.06339
901169,Fiorenzuola,2823,44.928716,9.917403
901170,Forli`,2918,44.22413,12.054871
901171,Forlimpopoli,2921,44.194165,12.128125
901172,Fornovo,2935,44.693791,10.102014
901173,Parma,5189,44.810203,10.32837
901174,Glorie,150,44.483341,12.075736
901175,Godo,6318,44.389322,12.071256
901176,Granarolo,2469,44.357356,11.937441
901177,Grizzana,3343,44.258292,11.181194
901178,Igea Marina,619,44.131972,12.481636
901179,Imola,3420,44.359418,11.718723
901180,Lama Di Reno,3991,44.363501,11.216168
901181,Lavezzola,2353,44.559591,11.880154
901182,Lavino,277,44.538306,11.232799
901183,Bellaria,619,44.150249,12.461168
901184,Cotignola,2469,44.387077,11.938037
901185,Avio,432,45.733892,10.955842
901186,Bolzano Sud,790,46.472617,11.33334
901187,Borghetto,432,45.696721,10.927083
901188,Castelbello,1682,46.626994,10.897884
901189,Casteldarne,2102,46.797708,11.844223
901190,Bressanone,963,46.710088,11.649677
901191,Bronzolo,994,46.40505,11.315833
901192,Brunico,1007,46.794922,11.929989
901193,Chiusa,2121,46.642611,11.572678
901194,Ciardes,1682,46.635274,10.940542
901195,Coldrano-Martello,3524,46.618902,10.821204
901196,Colle Isarco,939,46.937951,11.441336
901197,Serravalle,91,45.808184,11.014942
901198,Settequerce,7491,46.508448,11.264785
901199,Silandro,7191,46.625613,10.766327
901200,Spondigna-Prato Venosta,5750,46.634571,10.60999
901201,Terlano-Andriano,7491,46.528517,11.248394
901202,Grigno,3337,46.015059,11.624984
901203,Laces,3524,46.619692,10.85863
901204,Laives,3542,46.43409,11.323533
901205,Lasa,3571,46.618617,10.694828
901206,Lavis,3602,46.148306,11.095993
901207,Mori,4642,45.861216,11.002648
901208,Naturno,4755,46.645095,11.004303
901209,Caldonazzo,1138,45.997575,11.264815
901210,Campo Di Trens,1224,46.869076,11.488231
901211,Roncegno Bagni-Marter,6232,46.03618,11.398818
901212,S.Cristoforo Al Lago-Ischia,6465,46.039743,11.23375
901213,Monguelfo Valle Di Casies,4354,46.752775,12.107264
901214,Ora,4938,46.36092,11.296781
901215,Oris,3571,46.626672,10.645989
901216,Valdaora - Anterselva,7919,46.769231,12.02898
901217,Levico,3653,46.005729,11.30493
901218,Magre`- Cortaccia,2434,46.287976,11.232646
901219,Malles Venosta,3878,46.684542,10.546445
901220,Merano Maia Bassa,3958,46.656202,11.147931
901221,Mezzocorona,4172,46.207258,11.128595
901222,Dobbiaco,2601,46.725049,12.225122
901223,Egna-Termeno,2658,46.319418,11.257177
901224,Pergine,5277,46.062482,11.232637
901225,Villabassa - Braies,8261,46.736492,12.167041
901226,Villazzano,7737,46.045911,11.13906
901227,Vilpiano-Nalles,4720,46.554251,11.220143
901228,Ponte D`Adige,284,46.485444,11.297719
901229,Ponte Gardena,5618,46.6012,11.53251
901230,Sluderno-Glorenza,7225,46.664329,10.581832
901231,Strigno,7047,46.051003,11.514327
901232,Ala,91,45.760087,10.996775
901233,Tezze Di Grigno,3337,45.990485,11.669726
901234,Plaus,5529,46.65844,11.041057
901235,Marlengo,3958,46.664558,11.138577
901236,Borgo Valsugana Est,852,46.05224,11.462119
901237,Calceranica,1124,46.007384,11.240713
901238,Vandoies,8009,46.814822,11.723079
901239,Trento S.Chiara,7737,46.056242,11.13624
901240,Rio Di Pusteria,5974,46.79712,11.670028
901241,Salorno,6389,46.245842,11.202681
901242,Lana-Postal,5701,46.608079,11.182252
901243,Vipiteno,8355,46.895732,11.440206
901244,P.M.Vat,7854,46.092872,13.247412
901245,Tarvisio Boscoverde,7450,46.505956,13.608012
901246,Bivio Cargnacco,5232,46.007733,13.247325
901247,Montereale Valcellina,4555,46.148009,12.658923
901248,S.Stefano Udinese,6892,45.953683,13.274971
901249,S.Giovanni Di Casarsa,1558,45.943448,12.837255
901250,Meduno,4062,46.200678,12.80282
901251,Confine Italo/Sloveno,3278,45.922748,13.626923
901252,San Giorgio Di Nogaro,6522,45.82917,13.210315
901253,Strassoldo,463,45.856617,13.31836
901254,Artegna,372,46.23115,13.162328
901255,Aurisina,2650,45.753943,13.687706
901256,Aviano,427,46.064362,12.590686
901257,Bivio D`Aurisina,2650,45.754253,13.655777
901258,Bivio San Polo,4343,45.81393,13.526626
901259,Capriva,1380,45.938764,13.517494
901260,Carnia,210,46.373634,13.132847
901261,Casarsa,1558,45.953002,12.8406
901262,Cervignano A.G.,2046,45.823948,13.342866
901263,Budoia Polcenigo,1026,46.031464,12.537637
901264,Codroipo,2246,45.9657,12.976543
901265,Sevegliano,463,45.887451,13.30468
901266,Sistiana,2650,45.774903,13.645832
901267,Tarcento,7446,46.209134,13.196211
901268,Fontanafredda,2888,45.967555,12.575266
901269,Forgaria Bagni Anduins,2915,46.203472,12.964109
901270,Cordovado Sesto,2377,45.850653,12.877784
901271,Cornino,2915,46.220516,13.010581
901272,Gemona Del Friuli,3124,46.274243,13.127978
901273,Gorizia Centrale,3278,45.933047,13.60684
901274,Grignano,7178,45.713308,13.710255
901275,Latisana Lignano B.,3581,45.777733,13.001101
901276,Basiliano,581,46.012737,13.109233
901277,S.Vito Al Tagliamento,6741,45.912433,12.851594
901278,Sacile,6329,45.948413,12.498498
901279,Sacile San Liberale,6329,45.959155,12.514778
901280,Sagrado,6334,45.872629,13.484004
901281,Mossa,4674,45.935114,13.547281
901282,Muzzana Del Turgnano,4717,45.816817,13.132376
901283,Buttrio,1071,46.012664,13.329039
901284,Redipuglia,2872,45.853476,13.486016
901285,Risano,5232,45.97487,13.26181
901286,Ronchi Dei Legionari Nord,6234,45.830285,13.505962
901287,Ronchi Dei Legionari Sud,6234,45.818285,13.501207
901288,Pinzano,5481,46.179217,12.950779
901289,Monfalcone,4343,45.807683,13.542929
901290,Osoppo,5004,46.249011,13.084758
901291,Palazzolo Dello Stella,5110,45.803403,13.083957
901292,Palmanova,5149,45.906862,13.296461
901293,Torviscosa,7688,45.826002,13.282358
901294,Travesio,7717,46.187141,12.876921
901295,Trieste Centrale,7776,45.657456,13.771873
901296,Trieste Campo Marzio,7776,45.645817,13.755161
901297,Trieste Aquilinia,4695,45.618107,13.806161
901298,Udine,7854,46.055791,13.242003
901299,Udine Parco,7854,46.052099,13.260401
901300,Ugovizza Valbruna,3867,46.502902,13.494972
901301,Lumignacco,5232,45.999177,13.250841
901302,Majano,3864,46.219372,13.066308
901303,Cusano,8448,45.945427,12.757485
901304,Fanna - Cavasso,1910,46.187072,12.7707
901305,Bagnaria Arsa,463,45.885513,13.282026
901306,Cormons,2392,45.957519,13.461563
901307,Venzone,8089,46.331883,13.13549
901308,Villa Opicina,4361,45.6944,13.791142
901309,Villa Vicentina,6308,45.812922,13.395493
901310,Pontebba,5626,46.508463,13.311357
901311,Pordenone,5661,45.956281,12.654126
901312,Maniago,3902,46.170057,12.714527
901313,Manzano,3909,45.98811,13.375016
901314,S.Giovanni Al Natisone,6535,45.976122,13.397437
901315,S.Maria La Longa,6892,45.933068,13.287755
901316,Fabriano Ca` Maiano,2701,43.345598,12.873939
901317,Marino Del Tronto Folignano,2877,42.844346,13.632995
901318,Albacina,2016,43.345686,12.986501
901319,Ancona,226,43.607734,13.497665
901320,Ancona Marittima,226,43.619445,13.50911
901321,Ascoli Piceno,384,42.855474,13.587939
901322,Castelraimondo Camerino,1802,43.210511,13.057274
901323,Sassoferrato Arcevia,6972,43.435381,12.851514
901324,Serra S.Quirico,7118,43.444879,13.027408
901325,Spinetoli Colli,2292,42.87032,13.762811
901326,Pantiere Di Castelbellino,1681,43.500941,13.183116
901327,Pedaso,5241,43.094694,13.844906
901328,Pergola,5278,43.549653,12.832973
901329,Morrovalle Monte S.Giusto,4662,43.279189,13.58285
901330,S.Claudio,2411,43.287357,13.532751
901331,Pesaro,5310,43.906014,12.904848
901332,Montemarciano,4532,43.651397,13.346478
901333,Monteprandone,4551,42.894183,13.849996
901334,Monterosso Marche,6972,43.462227,12.818339
901335,Offida Castel Di Lama,4882,42.862074,13.720285
901336,Osimo Castelfidardo,1693,43.497033,13.547263
901337,Palombina,2720,43.61701,13.429721
901338,Loreto,3748,43.448376,13.620455
901339,Macerata,3815,43.293094,13.455172
901340,Maltignano Del Tronto,3882,42.844918,13.664738
901341,Marotta Mondolfo,4338,43.769748,13.137273
901342,Marzocca,4532,43.677362,13.287922
901343,Matelica,4034,43.25394,13.01509
901344,Cupramarittima,2532,43.02349,13.860812
901345,Fabriano,2701,43.345429,12.905336
901346,Fano,2731,43.842977,13.02478
901347,Potenza Picena Montelupone,5706,43.36991,13.59265
901348,Varano,226,43.574729,13.523436
901349,Pollenza,5582,43.240933,13.367031
901350,Porto Recanati,5678,43.433726,13.661464
901351,Porto S. Giorgio Fermo,5679,43.17972,13.7975
901352,Grottammare,3359,42.99381,13.870265
901353,Jesi,3488,43.520164,13.251316
901354,Urbisaglia Sforzacosta,3815,43.25746,13.416932
901355,Falconara Stadio,2720,43.626158,13.381179
901356,Cerreto D`Esi,2016,43.32205,12.98319
901357,Ancona Torrette,2720,43.609936,13.455777
901358,Macerata Fontescodella,3815,43.291569,13.44048
901359,Castelferretti,1190,43.607303,13.357519
901360,Bellisio Solfare,5278,43.520379,12.823977
901361,Melano Marischio,2701,43.345046,12.858866
901362,Senigallia,7090,43.716277,13.221652
901363,Falconara Marittima,2720,43.630577,13.397378
901364,Chiaravalle,2094,43.595503,13.327655
901365,Montecarotto Castelbellino,1681,43.500005,13.1481
901366,Castelplanio Cupramontana,1800,43.481403,13.084733
901367,Genga S.Vittore Terme,3127,43.403011,12.977163
901368,S.Severino Marche,6719,43.22996,13.183491
901369,Tolentino,7559,43.214556,13.290501
901370,Corridonia Mogliano,3815,43.281616,13.477697
901371,Montecosaro,4470,43.289297,13.646378
901372,Gagliole,3037,43.220298,13.07522
901373,Civitanova Marche,2211,43.3091,13.7257
901374,Porto S. Elpidio,5680,43.256855,13.760749
901375,S.Benedetto Del Tronto,6425,42.954386,13.882297
901376,Monsampolo Del Tronto,4363,42.881488,13.803569
901377,S.Filippo,384,42.849787,13.599949
901378,Villabartolomea,8225,45.153057,11.348728
901379,Villafranca Di Verona,8270,45.349801,10.849016
901380,Villaverla Montecchio,8334,45.656998,11.524271
901381,Anconetta,8183,45.565249,11.567865
901382,Ve Asseggiano,7332,45.499357,12.178101
901383,Polesella,5569,44.961039,11.738498
901384,Ponte Di Brenta,4845,45.429216,11.947734
901385,Portogruaro Caorle,5689,45.781438,12.832375
901386,Stazione Per L`Alpago,5621,46.137574,12.316066
901387,Grisignano Di Zocco,3341,45.48638,11.710762
901388,Istrana,3476,45.676539,12.102781
901389,Alano Fener Valdobbiadene,7065,45.90229,11.944546
901390,S. Dona` Di Piave,6474,45.63983,12.559791
901391,S.Elena - Este,6830,45.199209,11.712883
901392,S.Giorgio Delle Pertiche,6520,45.542538,11.917455
901393,S.Giustina Cesio,6870,46.077655,12.04294
901394,S.Martino Buon Albergo,6603,45.421559,11.089155
901395,S.Martino Di Lupari,6609,45.655928,11.857227
901396,S.Nazario,7234,45.838117,11.691321
901397,Fae`Fortogna,3734,46.239439,12.294121
901398,Thiene,7532,45.700697,11.475407
901399,Olmi Spercenigo,6433,45.679467,12.338101
901400,S.Biagio Di Callalta,6433,45.686134,12.374316
901401,Fagare,5617,45.70705,12.444296
901402,Ponte Di Piave,5617,45.719624,12.460683
901403,Oderzo,4877,45.775304,12.49293
901404,Gorgo Al Monticano,3274,45.784444,12.553737
901405,Motta Di Livenza,4679,45.779114,12.607118
901406,Pramaggiore,5736,45.774579,12.718413
901407,Annone Veneto,260,45.774904,12.680334
901408,San Bonifacio,6437,45.40276,11.27406
901409,Posto Comunicazione Dolce`,2606,45.601513,10.850588
901410,Vittorio Veneto,8371,45.989946,12.29327
901411,Carmignano Di Brenta,1442,45.621354,11.714891
901412,Caldiero,1136,45.41407,11.169753
901413,Campodarsego,1233,45.505721,11.900894
901414,Ceregnano,1993,45.05062,11.870958
901415,Trebaseleghe,7720,45.581509,12.040046
901416,Venezia Porto Marghera,8065,45.472381,12.256536
901417,Spinea,7332,45.491568,12.177168
901418,S.Trovaso,1578,45.627623,12.233886
901419,Venezia Marittima,8065,45.43995,12.320091
901420,Gr Sc Mestre St,7332,45.466808,12.242832
901421,Primolano,2667,45.965315,11.700899
901422,Quarto D`Altino,5830,45.574576,12.365032
901423,S.Marino,2667,45.897699,11.692241
901424,Conegliano,2348,45.884706,12.298909
901425,Ponte Nelle Alpi Polpet,5621,46.182328,12.277604
901426,Quero Vas,7163,45.939306,11.920189
901427,Resana,5930,45.634081,11.964251
901428,Lendinara,3618,45.081816,11.591667
901429,Verona Porta Vescovo,8121,45.435552,11.018841
901430,Preganziol,5768,45.60367,12.23138
901431,Roncanova Di Gazzo Ver.,3119,45.142207,11.097995
901432,Rosa`,6254,45.72054,11.775799
901433,Rosolina,6268,45.075548,12.239663
901434,Rossano Veneto,6273,45.702039,11.784812
901435,Rovigo,6301,45.076993,11.780892
901436,S.Croce Del Lago,174,46.094795,12.324068
901437,Peschiera Del Garda,5329,45.438502,10.702509
901438,Pianzano,3256,45.913397,12.388168
901439,Piombino Dese,5489,45.60944,12.00058
901440,Belluno,627,46.141594,12.209703
901441,Bevilacqua,697,45.230145,11.398643
901442,Mira Mirano,4244,45.462943,12.118789
901443,Mogliano Veneto,4280,45.561964,12.23274
901444,Monselice,4365,45.246116,11.74789
901445,Montagnana,4375,45.228238,11.459873
901446,Montebello,4443,45.45251,11.390803
901447,Montebelluna,4444,45.776434,12.054
901448,Fossalta Di Piave,2945,45.624215,12.500393
901449,Fossalta Di Portogruaro,2946,45.78324,12.907473
901450,Fratta,2986,45.038673,11.642598
901451,Fratte Centro,6871,45.585849,11.906637
901452,Gaggio,3940,45.551893,12.326027
901453,Galliera Veneta Tombolo,7565,45.652901,11.828066
901454,Noale Scorze`,4796,45.553833,12.074888
901455,Nogara,4808,45.179937,11.070572
901456,Nove,4839,46.050895,12.313312
901457,Orsago,4968,45.928068,12.434259
901458,Ospedaletto Euganeo,5008,45.221706,11.606553
901459,Ospitale Di Cadore,5010,46.325771,12.318429
901460,Padova,5056,45.417846,11.880794
901461,Paese,5082,45.669207,12.161677
901462,Paese Castagnole,5654,45.691182,12.182619
901463,Trevignano Signoressa,7757,45.74789,12.103123
901464,Treviso C.,7761,45.659608,12.24614
901465,Levada,2406,45.850158,12.006657
901466,Lisiera,5843,45.578581,11.610695
901467,Lison,5736,45.751947,12.759416
901468,Longarone Zoldo,3734,46.267466,12.301953
901469,Lonigo,3742,45.413269,11.345016
901470,Loreo,3747,45.059476,12.191569
901471,Maerne Di Martellago,7332,45.514799,12.150629
901472,Marano,3924,45.706864,11.4246
901473,Meolo,4093,45.61319,12.453969
901474,Mestrino,4160,45.457878,11.773859
901475,Dolo,2611,45.453466,12.07161
901476,Domegliara,6791,45.522348,10.820408
901477,Dossobuono,1639,45.392382,10.914831
901478,Dueville,2648,45.635,11.546108
901479,Este,2693,45.220954,11.662931
901480,Fanzolo,8042,45.708253,11.992069
901481,Occhiobello,4872,44.899384,11.621197
901482,Venezia Carpenedo,4280,45.506697,12.247609
901483,Venezia Mestre,7332,45.482123,12.232069
901484,Venezia Santa Lucia,8065,45.441569,12.320882
901485,Verona Ca` Di David,1068,45.384406,10.994897
901486,Verona Porta Nuova,8121,45.428603,10.982377
901487,Vicenza,8183,45.541102,11.540762
901488,Vigodarzere,8218,45.453289,11.891641
901489,Vigonza Pianiga,5388,45.442799,12.017977
901490,Villa Del Conte,8237,45.607701,11.852518
901491,Abano Terme,1,45.355199,11.811533
901492,Adria,48,45.06058,12.054228
901493,Albaredo,8042,45.670265,12.015104
901494,Altavilla Tavernelle,188,45.511805,11.454702
901495,Arqua`,361,45.006465,11.748518
901496,Badia Polesine,454,45.094439,11.484722
901497,Bonferraro,1638,45.185651,11.009247
901498,Boschi S.Anna,888,45.217328,11.362302
901499,Bovolone,915,45.254446,11.123862
901500,P.C.Canaro,1272,44.923012,11.675223
901501,Carpane`Valstagna,7913,45.860128,11.661183
901502,Cassola,1616,45.732291,11.795866
901503,Castello Di Godego,1756,45.688082,11.87759
901504,Castagnaro,1618,45.119349,11.403936
901505,Castelfranco Veneto,1701,45.666439,11.934315
901506,Castelnuovo,1775,45.430843,10.758273
901507,Cavanella D`Adige,6268,45.111263,12.249312
901508,Cavanella Po,3747,45.052208,12.134893
901509,Cavazzale,4596,45.596079,11.569823
901510,Ceggia,1936,45.688394,12.633987
901511,Cerea,1992,45.196556,11.213921
901512,Busche Lentiai Mel,2064,46.040092,11.979251
901513,Chioggia,2113,45.210243,12.275235
901514,Cismon Del Grappa,2667,45.919664,11.729272
901515,Cittadella,2193,45.643868,11.789857
901516,Schio,7027,45.710848,11.355508
901517,Sedico Bribano,7054,46.095424,12.086508
901518,Soffratta,8371,45.976377,12.299346
901519,Solagna,7234,45.815434,11.72134
901520,Spresiano,7347,45.77763,12.266984
901521,Stanghella,7355,45.13209,11.749094
901522,Susegana,7416,45.821054,12.258364
901523,Teglio Veneto,7473,45.809887,12.858938
901524,Terme Euganee-Abano-Montegr.,4508,45.32744,11.79604
901525,Feltre,2760,46.012884,11.911493
901526,Fontaniva,2898,45.634723,11.749038
901527,Cornuda,2406,45.833846,12.012886
901528,Costa,2456,45.045766,11.696511
901529,Isola Della Scala,3457,45.269474,11.013312
901530,Lama,3108,45.043466,11.913123
901531,Lancenigo,8343,45.710087,12.265663
901532,Legnago,3611,45.189034,11.304724
901533,Lerino,7668,45.518725,11.63567
901534,Baricetta,48,45.060889,11.995348
901535,Bassano Del Grappa,583,45.766697,11.741525
901536,Battaglia Terme,592,45.291475,11.77838
901537,S.Pietro In Gu`,6681,45.605039,11.673157
901538,S. Stino Di Livenza,6726,45.721088,12.682769
901539,Saletto,854,45.22274,11.535093
901540,Salzano Robegano,6401,45.535378,12.111485
901541,Sanguinetto,6766,45.188811,11.152467
901542,Pederobba Cavaso Possagno,5244,45.877299,11.965222
901543,Perarolo Di Cadore,5269,46.386277,12.352493
901544,Peri,942,45.658402,10.900314
901545,Mozzecane,4692,45.306687,10.823657
901546,Buttapietra,1068,45.338787,10.988059
901547,Calalzo Pieve Cadore Cortina,1112,46.443829,12.388668
901548,Camposampiero,1262,45.568922,11.928293
901549,Postioma,5082,45.715862,12.148248
901550,Pove Del Grappa Campese,5707,45.803248,11.719936
901551,Le Piagge,7005,43.789684,11.171665
901552,Cambiano,1182,43.631183,10.958997
901553,Castellina Marittima,1743,43.406122,10.495776
901554,Castelvecchio Pascoli,2941,44.09007,10.455061
901555,Castiglioncello,6266,43.404619,10.414354
901556,Certaldo,2031,43.547124,11.037711
901557,Firenze Statuto,2824,43.787273,11.249738
901558,Castiglion Fiorentino,1828,43.34075,11.914362
901559,Chiusi C.T.,2131,43.002466,11.957893
901560,Chiarone,1327,42.387528,11.446123
901561,Asciano Monte Oliveto Maggiore,383,43.231706,11.563621
901562,Binario S.Marco Vecchio,2824,43.790336,11.267403
901563,Ripafratta,8039,43.821711,10.415733
901564,S.Miniato Fucecchio,6640,43.701383,10.831605
901565,S. Pietro A Vico,3765,43.875094,10.530945
901566,S.Romano Montopoli S.Croce,1697,43.690575,10.760152
901567,Serravalle Pistoiese,7135,43.908016,10.85168
901568,Rignano Sull`Arno Reggello,5966,43.720834,11.452383
901569,Firenze S.M.N.,2824,43.776893,11.247373
901570,Forte Dei Marmi Serravezza Q.,2937,43.97777,10.19936
901571,Il Cionfo Bin. Le Cure,2824,43.786182,11.268501
901572,Pontassieve,5611,43.773949,11.437904
901573,Ponte A Elsa,2665,43.694385,10.906008
901574,Ponte A Moriano,833,43.908371,10.534264
901575,Ponte A Tressa,4559,43.250844,11.39617
901576,Ponte Ginori,4455,43.335594,10.740536
901577,Ponticino,3577,43.481446,11.71657
901578,Pontremoli,5649,44.371976,9.887795
901579,Popolano,3967,44.102323,11.649045
901580,Porcari,5659,43.831263,10.619212
901581,Giuncarico,3114,42.915473,11.008362
901582,Incisa,2802,43.656541,11.452728
901583,Indicatore,1827,43.480067,11.803468
901584,S.Donnino Badia,1213,43.785424,11.142169
901585,S.Ellero,5966,43.742143,11.469621
901586,S.Frediano A Settimo,1568,43.680508,10.517254
901587,S.Giovanni Valdarno,6554,43.56601,11.527033
901588,Santa Luce,6872,43.437248,10.48971
901589,Poggibonsi,5539,43.468093,11.149455
901590,Poggio - Careggine - Vagli,1258,44.148541,10.350626
901591,Equi Terme,1586,44.170282,10.153624
901592,Terontola Cortona,7839,43.210263,12.007906
901593,Terrarossa - Tresana,7746,44.237379,9.959675
901594,Tombolo,7565,43.631726,10.352916
901595,Il Cionfo Bin. Salviati,2797,43.798687,11.273076
901596,Pian Del Mugnone,2797,43.813899,11.265994
901597,Fiesole Caldine,2797,43.833697,11.266047
901598,Mimmole,7893,43.858111,11.265292
901599,Montorsoli,7893,43.881903,11.265484
901600,Cercina,7893,43.900121,11.265279
901601,Fontebuona,7893,43.91751,11.265553
901602,Vaglia,7893,43.924442,11.284576
901603,Campomigliaio,7893,43.937241,11.303593
901604,Scopeti,6314,43.841117,11.497001
901605,Albinia,4942,42.502165,11.21134
901606,Arbia,4559,43.294393,11.406225
901607,San Momme`,5513,44.027999,10.914798
901608,Vernio Montepiano Cantagallo,8115,44.043991,11.152342
901609,Castagneto Carducci,1619,43.16816,10.56399
901610,Ghivizzano - Coreglia,2378,44.027583,10.510183
901611,Massarosa Bozzano,4024,43.855652,10.352022
901612,S.Giuliano Terme,6558,43.764895,10.436892
901613,Tassignano,1329,43.834131,10.570495
901614,Borgo A Buggiano,1030,43.880724,10.730079
901615,Montecatini Terme,4456,43.879327,10.780588
901616,Firenze Rifredi,2824,43.800873,11.235729
901617,Prato Porta Al Serraglio,5749,43.884637,11.097385
901618,Pontedera Casciana Terme,5633,43.662145,10.628773
901619,Montelupo Capraia,4526,43.733357,11.018997
901620,Livorno Centrale,3691,43.55406,10.336593
901621,Populonia,1217,42.996412,10.540659
901622,Fiorentina Di Piombino,5488,42.969321,10.54235
901623,Castelfiorentino,1694,43.60542,10.968048
901624,Castelnuovo Berardenga,1777,43.306882,11.484912
901625,S.Giovanni D`Asso,7745,43.153292,11.593803
901626,Roccastrada,6101,42.957631,11.192942
901627,Torrita Di Siena,7680,43.174187,11.78758
901628,Serre Di Rapolano,5871,43.284347,11.558209
901629,Siena Zona Industriale,4559,43.26528,11.376652
901630,Monteroni D`Arbia,4559,43.230036,11.419662
901631,Buonconvento,1041,43.135503,11.483773
901632,Fi Rovezzano,467,43.768657,11.307372
901633,Aulla Lunigiana,413,44.210555,9.970015
901634,Volterra Saline - Pomarance,8402,43.35962,10.808269
901635,Campiglia Marittima,1217,43.017118,10.586558
901636,Camporgiano,1258,44.161448,10.334849
901637,Piombino Binari Porto Vecchio,5488,42.931641,10.539901
901638,Pracchia,6406,44.05479,10.90691
901639,Pratignone,1140,43.849273,11.162008
901640,Prato Centrale,5749,43.878737,11.109252
901641,Quercianella,3691,43.454922,10.37255
901642,Rapolano Terme,5871,43.283331,11.602504
901643,Rigoli,8039,43.789681,10.419663
901644,Rigomagno,3768,43.256767,11.706492
901645,Riparbella,5990,43.339461,10.582184
901646,Ronta,845,44.009432,11.434125
901647,Rosignano,6266,43.387899,10.438041
901648,Rufina,6314,43.822236,11.485072
901649,Piazza Al Serchio,5398,44.182515,10.296615
901650,Pietrasanta,5439,43.95583,10.229731
901651,Piombino,5488,42.924854,10.530959
901652,Piombino Binari Mare,5488,42.928931,10.54525
901653,Pisa Binari Aeroporto,5498,43.698555,10.398436
901654,Pisa Centrale,5498,43.70794,10.398183
901655,Pisa San Rossore,5498,43.723702,10.387363
901656,Pistoia,5513,43.926804,10.914624
901657,Montale Agliana,58,43.912924,11.008309
901658,Montallese,2131,43.064888,11.90928
901659,Monte Antico,2221,42.981054,11.359819
901660,Montecarlo San Salvatore,4450,43.850798,10.68537
901661,Montecatini Centro,4456,43.881216,10.77081
901662,Montepescali,3354,42.869518,11.068743
901663,Montepulciano,4552,43.135353,11.856865
901664,Fosciandora - Ceserana,2941,44.118559,10.444212
901665,Nozzano,8039,43.829956,10.40716
901666,Orbetello,4942,42.450615,11.248972
901667,Orciano,4943,43.500263,10.477566
901668,Pallerone,413,44.204232,10.005173
901669,Torre Del Lago Puccini,8176,43.826501,10.290287
901670,Torrenieri,6702,43.086602,11.552385
901671,Vada,6266,43.352641,10.470376
901672,Vaiano,7896,43.961772,11.130773
901673,Valdibrana,5513,43.965434,10.909994
901674,Contea Londa,2593,43.865124,11.531603
901675,Lucca,3765,43.837186,10.506069
901676,Marradi,3967,44.07973,11.619174
901677,Massa Centro,4012,44.023741,10.136041
901678,Minucciano - Pieve - Casola,1586,44.194385,10.193837
901679,Prato Borgonuovo,5749,43.893216,11.076222
901680,Dicomano,2593,43.893489,11.519148
901681,Diecimo - Pescaglia,833,43.959404,10.507844
901682,Empoli,2665,43.715708,10.94915
901683,Barga Gallicano,3056,44.068114,10.451938
901684,Navacchio,1125,43.685941,10.486806
901685,Pescia,5330,43.886811,10.686074
901686,Piteccio,5513,44.009786,10.9013
901687,Viareggio,8176,43.865947,10.257886
901688,Vicarello,2286,43.609253,10.460442
901689,Vicchio,8182,43.933463,11.457634
901690,Vignale Riotorto,1217,42.967587,10.667255
901691,Villafranca - Bagnone,8271,44.294399,9.948096
901692,Villetta S. Romano,6707,44.146764,10.367565
901693,Zambra,7155,43.825856,11.206206
901694,S.Piero A Sieve,7018,43.958317,11.322742
901695,Fauglia - Lorenzana,2749,43.551831,10.50304
901696,Alberese,3354,42.634158,11.1352
901697,Altopascio,199,43.817418,10.672754
901698,Antignano,266,43.492482,10.328827
901699,Arezzo,328,43.461725,11.874189
901700,Asciano,383,43.235245,11.579237
901701,Aulla,413,44.209662,9.970632
901702,Bivio Mortellini,5498,43.661224,10.369478
901703,P.M. Badesse,4557,43.382144,11.277136
901704,Biforco,3967,44.068431,11.602243
901705,Bolgheri,709,43.244664,10.550548
901706,Borgo A Mozzano,833,43.977207,10.541285
901707,Borgo S. Lorenzo,845,43.959822,11.380422
901708,Borgo S.L.Rimorelli,845,43.953279,11.400076
901709,Camucia Cortona,2436,43.261104,11.971245
901710,Capalbio,1327,42.407974,11.370982
901711,Carrara Avenza,3786,44.051239,10.062927
901712,Cascina,1568,43.674542,10.545225
901713,Casino Di Terra,3395,43.328581,10.662975
901714,Castagno,5513,44.012359,10.91538
901715,Castellina Ch,4557,43.408744,11.212379
901716,Castelnuovo Di Garfagnana,1788,44.116351,10.409054
901717,Cecina,1931,43.31028,10.514225
901718,Bucine,1024,43.480478,11.617609
901719,Civitella Paganico,2221,42.94028,11.283536
901720,Colle Val D`Elsa,2266,43.421908,11.127681
901721,Collesalvetti,2286,43.586586,10.470534
901722,Compiobbi,467,43.782527,11.358695
901723,Scarlino,7015,42.942002,10.836798
901724,Scorcetoli,4700,44.34431,9.911853
901725,Sesto Fiorentino,7155,43.833297,11.191941
901726,Sieci,5611,43.790892,11.394608
901727,Siena,7188,43.331708,11.322972
901728,Signa,7190,43.775441,11.095961
901729,Sinalunga,7207,43.216189,11.744866
901730,Sticciano,6101,42.929333,11.118621
901731,Talamone,3841,42.56461,11.164524
901732,Firenze Campo Marte,2824,43.776856,11.27702
901733,Firenze Cascine,7005,43.792161,11.19844
901734,Firenze Castello,7155,43.819444,11.21838
901735,Figline Valdarno,2802,43.621596,11.473652
901736,Filattiera,2808,44.33137,9.933352
901737,Fivizzano - Gassano,2859,44.202672,10.091691
901738,Fivizzano Rometta - Soliera,3659,44.201526,10.05953
901739,Follonica,2881,42.926687,10.755775
901740,Fornaci Di Barga,538,44.045253,10.473173
901741,Panicaglia,845,43.978449,11.407511
901742,Corbezzi,5513,43.993948,10.919676
901743,Gavorrano,3114,42.947959,10.9338
901744,Gragnola,2859,44.191069,10.109245
901745,Granaiolo,1694,43.652244,10.945223
901746,Grosseto,3354,42.76728,11.1065
901747,Il Neto,7155,43.839624,11.182656
901748,Laterina,3577,43.496458,11.660573
901749,Bagni Di Lucca,466,44.003447,10.551631
901750,S. Vincenzo,6736,43.100366,10.539823
901751,Montevarchi Terranuova,4584,43.525165,11.563983
901752,Doppio Bivio Montuolo,8039,43.83172,10.428321
901753,Monzone-M.Dei Banchi-Isolano,1586,44.165637,10.123827
901754,Murlo,4707,43.11398,11.400394
901755,Calenzano,1140,43.856429,11.14537
901756,Camaiore Lido Capezzano,8176,43.912176,10.24765
901757,Guardia Mangano Santa Venerina,6905,37.661812,15.169447
901758,Catania Centrale,1875,37.506211,15.099417
901759,Catania Acquicella,1875,37.492765,15.074699
901760,Agnone Di S.,1435,37.305203,15.077155
901761,Brucoli,411,37.272883,15.186876
901762,Motta Camastra,4676,37.890651,15.163764
901763,Caltanissetta Xirbi,1156,37.536296,14.056902
901764,Dirillo,10,37.006569,14.39154
901765,Vittoria,8370,36.958721,14.52499
901766,Donnafugata,6859,36.882055,14.568968
901767,Modica,4271,36.8529,14.754255
901768,S.Teresa Longarini,7214,37.006456,15.246277
901769,Gela-Anic,3122,37.055601,14.284207
901770,Carini Torre Ciachea,1326,38.16149,13.219641
901771,Catenanuova,1886,37.562026,14.688263
901772,Orsa,2162,38.190454,13.119126
901773,Cefalu`,1935,38.03285,14.019526
901774,Mili Marina,4117,38.125758,15.519042
901775,Ponte S.Stefano,7001,38.097147,15.503587
901776,Villabate,8262,38.086094,13.451314
901777,Priolo Soprano,4792,37.092142,14.377888
901778,Ragusa Ibla,5859,36.93133,14.750993
901779,Serradifalco,7121,37.431804,13.883299
901780,Pozzallo,5714,36.733821,14.848708
901781,Sciara A.,7030,37.903207,13.774128
901782,Siracusa,7214,37.068906,15.280896
901783,Sparagogna,1886,37.571355,14.632266
901784,Licata,3658,37.106024,13.938114
901785,Castelluccio Siculo,411,37.302714,15.137547
901786,Torregrotta,7660,38.208376,15.352813
901787,Tommaso Natale,3458,38.190283,13.28819
901788,Piraineto,2162,38.169148,13.14256
901789,Gole Di Alcantara,4676,37.878403,15.176039
901790,Punta Raisi,2162,38.188892,13.110059
901791,Leonforte-Pirato,3628,37.606305,14.376063
901792,S.Flavia,6867,38.0826,13.530625
901793,Acquedolci-S.Fratello,40,38.058459,14.587597
901794,San Giorgio,5222,38.173967,14.94414
901795,Oliveri Tindari,4904,38.128346,15.056573
901796,Palermo Brancaccio,5116,38.093141,13.392508
901797,S.Nicola Di Mazara,1231,37.619257,12.675823
901798,Castelvetrano,1820,37.684977,12.799552
901799,Gallitello,3215,37.857927,12.948785
901800,Cinisi Terrasini,2162,38.155314,13.096673
901801,Cardillo Zen,3458,38.17495,13.296897
901802,Roccapalumba-Alia,6090,37.793751,13.673628
901803,Mimiani-S.Cataldo,6446,37.547382,13.963966
901804,Motta Santa Anastasia,4682,37.460389,14.936912
901805,Militello,4230,37.277194,14.78317
901806,Targia,7214,37.10963,15.245908
901807,Graniti,3308,37.869467,15.208633
901808,Mojo-Alcantara Malvagna,4285,37.896949,15.050228
901809,Racalmuto,5848,37.406065,13.72752
901810,Favarotta,1230,37.20532,13.913217
901811,Ragusa,5859,36.91927,14.725677
901812,S.Paolo,6656,36.840355,15.023799
901813,Campobello Ravanusa,5877,37.265731,13.946251
901814,Palermo Sampolo,5116,38.139247,13.355021
901815,Federico,5116,38.144862,13.344966
901816,Palermo Marittima,5116,38.130732,13.360768
901817,Caltanissetta Centrale,1156,37.48829,14.057396
901818,Castronovo Di Sicilia,1869,37.681193,13.643028
901819,Altavilla M.,185,38.048392,13.554421
901820,Fiumetorto,7030,37.966939,13.774781
901821,Pollina,5584,38.018,14.175943
901822,Santo Stefano Di Camastra,6920,38.01778,14.35104
901823,S.Agata M.,6778,38.073554,14.640622
901824,Brolo Ficarra,990,38.159204,14.830176
901825,Novara Montalbano Furnari,3015,38.121516,15.130702
901826,Barcellona,526,38.14918,15.212499
901827,Milazzo,4226,38.21195,15.244203
901828,Villafranca Tirrena,8275,38.233517,15.42892
901829,Mozia-Birgi,3970,37.884956,12.499016
901830,Terrenove,5355,37.748755,12.480604
901831,Mazara Del Vallo,4041,37.652448,12.594565
901832,Salemi Gibellina,3215,37.806619,12.865517
901833,Castellammare Del Golfo,1714,38.024309,12.912209
901834,Palazzo Reale-Orleans,5116,38.10878,13.353962
901835,Segesta Tempio,1122,37.949585,12.828118
901836,Fulgatore,1056,37.9543,12.686312
901837,Campofranco,1244,37.510105,13.686777
901838,Comitini,2327,37.423806,13.6528
901839,Agrigento Bassa,72,37.319148,13.588094
901840,Valledolmo,7966,37.709073,13.756029
901841,Dittaino,397,37.564605,14.462429
901842,Grammichele,3303,37.209336,14.641256
901843,Mineo,4235,37.24572,14.756907
901844,Palagonia,5099,37.318146,14.892565
901845,Messina Centrale,4117,38.184975,15.561278
901846,Giampilieri,7001,38.080121,15.493863
901847,Scaletta Zanclea,7001,38.04635,15.465376
901848,Roccalumera Mandanici,6082,37.972946,15.391411
901849,Santa Teresa Di Riva,6903,37.946295,15.367682
901850,Mascali,3999,37.765403,15.1942
901851,Campofelice,1240,37.992615,13.876549
901852,Priolo Melilli,5795,37.157951,15.197038
901853,Raddusa Agira,5853,37.544858,14.518863
901854,Randazzo,5864,37.873782,14.950406
901855,Rometta Messinese,8275,38.228455,15.405894
901856,Rosolini,6269,36.81598,14.952955
901857,S.Alessio Siculo Forza D`Agro`,6788,37.923992,15.347322
901858,S.Cataldo,6446,37.469615,13.997659
901859,Petrosino Strasatti,5355,37.725466,12.509434
901860,Bicocca,1875,37.460617,15.044594
901861,Montemaggiore,4528,37.859037,13.693193
901862,Francavilla,2966,37.899892,15.132812
901863,Francia,5116,38.155233,13.321938
901864,Furci,3013,37.961714,15.380022
901865,Gaggi,3029,37.858532,15.225095
901866,Galati,7001,38.104511,15.505313
901867,Niscemi,4792,37.145,14.403471
901868,Nizza Di Sicilia,4794,37.996937,15.412334
901869,Noto,4827,36.88247,15.074523
901870,Palermo Notarbartolo,5116,38.132261,13.341572
901871,Pace Del Mela,5045,38.202459,15.312676
901872,Paceco,5046,37.991354,12.550844
901873,Pachino,5048,36.710144,15.094661
901874,Palermo Centrale,5116,38.109187,13.367515
901875,Torre Del Lauro,40,38.041045,14.521179
901876,Trabia,7693,37.996408,13.65567
901877,Trapani,7704,38.017092,12.518814
901878,Trappeto,7705,38.065089,13.036873
901879,Tremestieri,4117,38.150323,15.535528
901880,Tusa,7849,38.007989,14.256693
901881,Vallelunga,7972,37.691542,13.846428
901882,Contesse,4117,38.16193,15.544717
901883,Letojanni,3645,37.877581,15.303128
901884,Libertinia,1646,37.545615,14.591893
901885,Marausa,5046,37.92647,12.504113
901886,Marcatobianco,155,37.717381,13.719922
901887,Marianopoli,3952,37.623011,13.898901
901888,Marsala,3970,37.793514,12.443174
901889,Marzamemi,5048,36.7309,15.111238
901890,Megara G.,5795,37.193164,15.183205
901891,Messina Marittima,4117,38.14988,15.534997
901892,Milo,4233,37.996862,12.577749
901893,Delia,2572,37.317685,13.914687
901894,Enna,2669,37.581134,14.289579
901895,Falconara,3658,37.113529,14.052516
901896,Falcone,2721,38.119573,15.080467
901897,Piana Del Signore,3122,37.056089,14.304292
901898,Venetico,8064,38.216502,15.367076
901899,Vespri,5116,38.101996,13.362701
901900,Villalba,8280,37.668526,13.885155
901901,Villarosa,8324,37.567205,14.200464
901902,Vituso,4792,37.160465,14.451623
901903,Vizzini,8380,37.182566,14.729457
901904,Zappulla,1367,38.116962,14.703086
901905,Portiere Stella,4682,37.450341,14.890175
901906,Porto Empedocle,5676,37.291539,13.537862
901907,Spadafora,7312,38.221922,15.377196
901908,Taormina,7439,37.845429,15.282584
901909,Gerbini,5217,37.473138,14.845822
901910,Isola Delle Femmine,3458,38.194784,13.250188
901911,S.Filippo-S.Lucia,5045,38.198143,15.288334
901912,S.Lorenzo Colli,5116,38.16292,13.316449
901913,San Marco D`Alunzio T.,7662,38.094202,14.675909
901914,San Martino Piana,4682,37.455701,14.996912
901915,Acate,10,36.996592,14.42545
901916,Acireale,23,37.600514,15.163697
901917,Acquaviva,39,37.570258,13.674927
901918,Agrigento Centrale,72,37.309051,13.584412
901919,Alcamo,135,37.93891,12.926125
901920,Alcamo Diramazione,135,37.978894,12.915916
901921,Alcantara,1121,37.82145,15.251158
901922,Ali` Terme,154,38.013952,15.435184
901923,Aragona Caldare,2327,37.381097,13.636837
901924,Augusta,411,37.24334,15.218628
901925,Avola,434,36.907434,15.125733
901926,Bagheria,458,38.089905,13.507215
901927,Canicatti`,1289,37.359879,13.855395
901928,Cannizzaro,20,37.54711,15.129698
901929,Capaci,1326,38.171794,13.232398
901930,Capo D`Orlando-Naso,1339,38.157941,14.744844
901931,Carini,1429,38.147696,13.186624
901932,Caronia,1448,38.034475,14.443761
901933,Carruba,3210,37.694344,15.196143
901934,Cassibile,434,36.962581,15.191895
901935,Castelbuono,1685,38.014606,14.108578
901936,Casteldaccia,1689,38.060474,13.536867
901937,Castiglione Di Sicilia,1840,37.88674,15.097013
901938,Castrofilippo,1866,37.363751,13.780842
901939,Cerda,1991,37.953964,13.78447
901940,Bruca,1122,37.946836,12.793178
901941,Buonfornello,1991,37.972052,13.816408
901942,Butera,1066,37.145078,14.171691
901943,Comiso,2326,36.947184,14.60037
901944,Comitini Zolfare,2327,37.409955,13.661007
901945,Scicli,7031,36.789939,14.698759
901946,Scordia,7043,37.294595,14.851219
901947,Sferro,1886,37.502031,14.792131
901948,Siracusa M.,7214,37.057888,15.293258
901949,Spagnuola,3970,37.83631,12.477051
901950,Terme Vigliatore,7493,38.133588,15.164396
901951,Termini Imerese,7495,37.980132,13.703631
901952,Fiera,5116,38.144004,13.351336
901953,Fildidonna,7043,37.310867,14.808848
901954,Fiumefreddo Di Sicilia,2855,37.795247,15.205615
901955,Partinico,5202,38.05857,13.108956
901956,Passomartino,3626,37.396391,15.009698
901957,Patti-San Piero Patti,5222,38.146905,14.975331
901958,Gela,3122,37.07283,14.259461
901959,Genisi,2326,36.882562,14.623413
901960,Giachery,5116,38.138135,13.355856
901961,Giarre Riposto,3210,37.730346,15.193386
901962,Giojosa Marea,3233,38.175149,14.894794
901963,Grotte,3361,37.409848,13.702717
901964,Imera,8324,37.533814,14.125165
901965,Ispica,3470,36.77804,14.914315
901966,Lascari,3572,38.011672,13.928633
901967,Lentini,3626,37.300916,14.99758
901968,Lentini Diramazione,3626,37.340009,14.98141
901969,Lercara Bassa,3633,37.737639,13.633053
901970,Balestrate,492,38.053364,13.007374
901971,S.Nicola T.,7693,38.015817,13.612755
901972,S.Oliva,3658,37.15773,13.901587
901973,Sampieri,7031,36.73188,14.744577
901974,Calatabiano,1121,37.814684,15.226568
901975,Calatafimi,1122,37.938858,12.856156
901976,Caltagirone,1155,37.225276,14.521165
901977,Cammarata S.Giovanni Gemini,6540,37.653759,13.673791
901978,Campobello Di Mazara,1231,37.636256,12.733165
901979,Policoro Tursi,5573,40.207304,16.688819
901980,Albano Di Lucania,104,40.574707,16.021247
901981,Acquafredda,26,40.035527,15.671846
901982,Maratea,3926,39.995028,15.70975
901983,Marconia,7012,40.316896,16.752317
901984,Metaponto,672,40.368496,16.815176
901985,Filiano,2811,40.837161,15.752285
901986,Forenza,2913,40.866839,15.725331
901987,Bella Muro,508,40.700914,15.542936
901988,Salandra,6350,40.583446,16.351564
901989,Monticchio,4586,40.923923,15.539231
901990,Calciano,1126,40.595117,16.202526
901991,Campomaggiore,1252,40.550772,16.086766
901992,Potenza Superiore,5705,40.64586,15.800966
901993,Rionero Atella Ripacandita,5981,40.922066,15.678699
901994,Picerno,5405,40.640122,15.641612
901995,Pietragalla,5428,40.753314,15.79211
901996,Pisticci,5512,40.420848,16.552181
901997,Trivigno,7818,40.588598,15.997824
901998,Bernalda,672,40.397616,16.682281
901999,Balvano R.,500,40.649993,15.495304
902000,Tiera,5705,40.697817,15.819279
902001,Marina Di Maratea,3926,39.959512,15.735953
902002,Monteverde,4586,40.967691,15.568502
902003,Barile,556,40.943044,15.670959
902004,Potenza Centrale,5705,40.629469,15.806808
902005,Baragiano,508,40.695213,15.569206
902006,Scanzano J. Montalbano J.,7012,40.25362,16.705192
902007,Nova Siri Rotondella,6053,40.130311,16.644044
902008,Rapone Ruvo S.Fele,1145,40.88802,15.47373
902009,Pisciolo,4586,41.018914,15.565446
902010,Tito,7549,40.607321,15.698194
902011,Lagonegro,3533,40.120325,15.7627
902012,Melfi,4072,40.989871,15.646895
902013,Castel Lagopesole,2811,40.787682,15.758093
902014,Avigliano Lucania,430,40.714667,15.785619
902015,Leonessa,3627,41.062304,15.595094
902016,Possidente,2811,40.781144,15.777104
902017,S. Nicola Di Melfi,4072,41.073281,15.677602
902018,Venosa - Maschito,8083,40.979136,15.846171
902019,Palazzo S.Gervasio - Montemil.,5108,40.93929,15.98982
902020,Vaglio Basilicata,7894,40.656322,15.880105
902021,Brindisi Di Montagna,977,40.611991,15.955795
902022,Grassano,3313,40.593317,16.241049
902023,Ferrandina,2772,40.516566,16.475276
902024,Calitri Pescopagano,1145,40.884932,15.427962
902025,S.Tommaso Del Piano,5873,40.900403,15.503719
902026,Gravina In Puglia,3321,40.825216,16.418926
902027,Palagiano Mottola,5098,40.601744,17.065478
902028,Monteiasi,4509,40.523852,17.361457
902029,Margherita Di Sav./Ofantino,3947,41.343,16.136024
902030,Minervino Murge,4239,41.081788,16.074974
902031,Brindisi Marittima,976,40.633543,17.94863
902032,Candida,1282,41.346664,15.996588
902033,Castellaneta Marina,5098,40.481111,16.965434
902034,Troia Castelluccio Sauri,1760,41.319829,15.421123
902035,Chieuti Serracapriola,2109,41.921962,15.156645
902036,Amendola,1388,41.518025,15.732569
902037,Frattarolo,3898,41.58364,15.861727
902038,Manfredonia,3898,41.623046,15.908142
902039,Trinitapoli S.Ferdin. Di P.,7808,41.349677,16.090839
902040,Fasano,2747,40.851753,17.3859
902041,Carovigno,1452,40.737337,17.683791
902042,S.Vito Dei Normanni,6744,40.650352,17.818585
902043,Squinzano,7350,40.439266,18.046097
902044,Ordona,4945,41.315006,15.620567
902045,Rocchetta S.Ant.Lac.,1277,41.1518,15.53295
902046,Canne Della Battaglia,6488,41.294583,16.146169
902047,Acquaviva Delle Fonti,37,40.892806,16.839826
902048,Francavilla Fontana,2967,40.523145,17.584714
902049,Bari S. Spirito,734,41.159653,16.746324
902050,Rignano Garganico,5965,41.579344,15.490229
902051,Grottaglie,3357,40.528989,17.424503
902052,Altamura,181,40.837666,16.551739
902053,Apricena,289,41.77664,15.387809
902054,Ascoli Satriano,385,41.219859,15.547828
902055,Bari Palese Macchie,4274,41.151583,16.766902
902056,Bari S.Andrea,542,41.105467,16.830255
902057,Bari S.Giorgio,7804,41.093779,16.950084
902058,Bisceglie,727,41.235445,16.499484
902059,Bitetto Palo Del Colle,733,41.041481,16.74053
902060,Bovino Deliceto,912,41.27835,15.369255
902061,Candela,1277,41.151439,15.533163
902062,Canosa Di Puglia,1304,41.218556,16.053906
902063,Casal Sabini,181,40.799021,16.647908
902064,Cerignola,2007,41.315664,15.897298
902065,Cervaro,2036,41.397604,15.595704
902066,Brindisi,976,40.634339,17.938978
902067,Cisternino,2188,40.816652,17.456899
902068,Siponto,3898,41.61296,15.895572
902069,Spinazzola,7331,40.953396,16.087173
902070,Taranto,7443,40.483727,17.224059
902071,Gioia Del Colle,3229,40.796983,16.916569
902072,Incoronata,1388,41.408174,15.650728
902073,Latiano,3579,40.558074,17.717629
902074,Lecce,3605,40.34566,18.165724
902075,Barletta,559,41.315227,16.278867
902076,Bellavista,7357,40.517077,17.176892
902077,S. Pietro Vernotico,6688,40.48902,18.000716
902078,San Severo,6720,41.684512,15.392567
902079,Sannicandro Di Bari,6769,40.958821,16.753771
902080,Santuario Incoronata,4945,41.370726,15.605748
902081,Santeramo,6912,40.8026,16.76403
902082,Posto Movimento Ripalta,3639,41.895706,15.27507
902083,Modugno Citta`,4274,41.086437,16.779596
902084,Molfetta,4292,41.196008,16.596793
902085,Monopoli,4359,40.952017,17.292455
902086,Oria,4949,40.508167,17.646534
902087,Ortanova,4975,41.350441,15.732059
902088,Ostuni,5023,40.752356,17.580809
902089,Palagianello,5097,40.610906,16.975202
902090,Palagiano Chiatona,5098,40.516998,17.059217
902091,Trani,7702,41.272693,16.417646
902092,Trepuzzi,7744,40.40964,18.076902
902093,Tuturano,6688,40.550726,17.979016
902094,Massafra,4021,40.582968,17.107899
902095,Mesagne,4111,40.563203,17.802082
902096,Cozze,5574,41.017835,17.159396
902097,Egnazia,4359,40.901727,17.329607
902098,Bari Parco Nord,542,41.123916,16.837018
902099,Bari Torre A Mare,4812,41.082637,16.995772
902100,Villa Castelli,8229,40.523377,17.476149
902101,Polignano A Mare,5574,40.990926,17.218676
902102,Ponte Albanito,1760,41.35148,15.532976
902103,Ginosa,3226,40.429201,16.890968
902104,Giovinazzo,3235,41.180968,16.669346
902105,Grumo Appula,3371,41.01199,16.718777
902106,Poggio Imperiale,5543,41.805561,15.35707
902107,Poggiorsini,5559,40.935221,16.266897
902108,Bari Parco Sud,7804,41.111822,16.914736
902109,Mola Di Bari,4289,41.057227,17.080919
902110,Nasisi,7443,40.50791,17.257802
902111,Foggia,2869,41.466,15.555816
902112,Praja Ajeta Tortora,5730,39.900832,15.780628
902113,Reggio Di Calabria Catona,8249,38.185806,15.641205
902114,Riace,5946,38.389178,16.528152
902115,Rocca Imperiale,6053,40.100043,16.615742
902116,Saline Di Reggio,6132,37.938677,15.710664
902117,Scilla,7034,38.251202,15.710886
902118,Simeri Crichi,7205,38.883068,16.716122
902119,Tarsia,7448,39.653552,16.24293
902120,Reggio Calabria Lido,5904,38.117668,15.649171
902121,R.C.Aeroporto,5904,38.073039,15.642301
902122,Fiumefreddo Bruzio,2854,39.246369,16.059012
902123,Francavilla Angitola F.,2963,38.778074,16.215215
902124,Fuscaldo,3018,39.409692,16.011475
902125,Gabella Grande,2512,39.146447,17.10991
902126,Gizzeria Lido,3254,38.933446,16.212563
902127,Grisolia S.Maria,3342,39.739731,15.821072
902128,Guardavalle,3386,38.480266,16.578923
902129,Guardia Piemontese Terme,3390,39.464259,15.979237
902130,Lamezia Terme Nicastro,3548,38.966779,16.320043
902131,Lamezia Terme Sambiase,3548,38.959927,16.284962
902132,Locri,3712,38.233154,16.264787
902133,Longobardi,3738,39.211493,16.061261
902134,Marcellina Verbicaro Orsomarso,6883,39.766974,15.822665
902135,Marcellinara,3931,38.923103,16.466939
902136,Marina Di San Lorenzo,4079,37.919844,15.826365
902137,Mirto Crosia,2510,39.604876,16.777366
902138,Monasterace Stilo,4319,38.437591,16.574444
902139,Mongrassano Cervicati,4353,39.538462,16.222511
902140,Montepaone - Montauro,3101,38.728548,16.541944
902141,Motta San Giovanni Lazzaro,4681,37.976978,15.659977
902142,Nicotera,4788,38.549328,15.933749
902143,Nocera Tirinese,4802,39.015913,16.119677
902144,Palizzi,5143,37.91881,15.986405
902145,Palmi,5152,38.364914,15.84438
902146,Paola,5175,39.359442,16.033093
902147,Pietrapaola,5433,39.540121,16.860819
902148,Scalea S.Domenica Talao,6999,39.8083,15.80139
902149,Lamezia Terme Centrale,3548,38.921347,16.255577
902150,Cutro,2552,39.02593,16.963809
902151,Gioia Tauro,3231,38.423436,15.897516
902152,S.Lucido Marina,6587,39.313203,16.045546
902153,Sibari,8312,39.749863,16.456922
902154,S.Andrea Dell`Jonio,6795,38.620097,16.553449
902155,Montalto Rose,6261,39.407213,16.247291
902156,Catanzaro,1885,38.896222,16.599081
902157,Villa S.Giovanni Mare,8249,38.220912,15.632912
902158,Joppolo,3492,38.580318,15.897025
902159,Bagnara,460,38.282695,15.800327
902160,Villa S.G.Cannitello,1222,38.23409,15.653246
902161,Reggio Di Calabria Gallico,1222,38.165235,15.650716
902162,Santa Domenica,5952,38.663764,15.859822
902163,Mileto,4228,38.577082,16.060041
902164,Monte Giordano,6263,40.040812,16.597907
902165,Villapiana Torre Cerchiara,8312,39.790568,16.479497
902166,Corigliano Calabro,2385,39.628223,16.514949
902167,Mandatoriccio Campana,1424,39.525442,16.893125
902168,Isola Capo Rizzuto,2512,39.043084,17.071764
902169,Catanzaro Lido,1885,38.821788,16.612975
902170,Soverato,7302,38.684339,16.549416
902171,S.Caterina Dell`Jonio,6852,38.530452,16.571093
902172,Gioiosa Jonica,3955,38.300812,16.332501
902173,Brancaleone,924,37.965475,16.103301
902174,Bova Marina,906,37.930269,15.923897
902175,Melito Di Porto Salvo,4079,37.916732,15.780816
902176,Reggio Di Calabria S.Gregorio,5904,38.061274,15.652053
902177,Spezzano Albanese Terme,7322,39.707307,16.287599
902178,S.Marco Roggiano,6131,39.605223,16.208776
902179,Castiglione Cosentino,1831,39.35542,16.244388
902180,Feroleto Antica Pianopoli,5390,38.938255,16.36622
902181,Bivio Pantani,5175,39.346697,16.046631
902182,Villa San Giovanni,8249,38.216638,15.634336
902183,Parghelia,5187,38.683341,15.925042
902184,Pizzo,5520,38.726323,16.150615
902185,Reggio Calabria Centrale,5904,38.103884,15.635844
902186,Reggio Calabria Marittima,5904,38.121947,15.647886
902187,Reggio Di Calabria Pellaro,4681,38.02561,15.650064
902188,Ricadi,5952,38.630676,15.839848
902189,Roccabernarda,6066,38.942165,16.900439
902190,Roccella Jonica,6107,38.322043,16.406917
902191,Rosarno,6255,38.488593,15.970149
902192,Roseto Capo Spulico,6263,39.972412,16.620275
902193,Rossano,5162,39.603005,16.640859
902194,S.Nicola Arcella,6645,39.850764,15.793165
902195,S.Pietro A Maida,6667,38.867817,16.276306
902196,San Leonardo Di Cutro,2552,38.954221,16.964409
902197,Sangineto,6765,39.592487,15.863973
902198,Santa Maria Di Catanzaro,1885,38.864988,16.605785
902199,Sellia Marina,7073,38.903666,16.764788
902200,Settingiano,7170,38.903198,16.510832
902201,Siderno,7187,38.2708,16.302
902202,Squillace,7349,38.77705,16.570418
902203,Strongoli,7391,39.228139,17.108256
902204,Thurio,2385,39.69651,16.474098
902205,Torano Lattarico,7571,39.49455,16.210509
902206,Torre Melissa,2177,39.304391,17.108402
902207,Trebisacce,7721,39.865561,16.532173
902208,Tropea,7828,38.672302,15.894568
902209,Vibo Marina,6845,38.713731,16.120199
902210,Vibo Valenzia Pizzo,6845,38.714593,16.139887
902211,Villa S. Giovanni Bolano,8249,38.200739,15.635099
902212,Villapiana Lido,8312,39.811234,16.490988
902213,Zambrone,8413,38.712738,15.976204
902214,Acquappesa,31,39.48648,15.955992
902215,Acri Bisignano Luzzi,3808,39.441389,16.245177
902216,Africo Nuovo,53,38.053759,16.144283
902217,Amantea,209,39.134353,16.068448
902218,Amendolara Oriolo,219,39.933731,16.60308
902219,Ardore,323,38.175698,16.207311
902220,Badolato,456,38.572268,16.567646
902221,Belmonte Calabro,629,39.164427,16.064515
902222,Belvedere Marittimo,639,39.616549,15.853039
902223,Bianco,700,38.089072,16.153348
902224,Bivio Settimo,5928,39.381416,16.222002
902225,Botricello,900,38.933943,16.857433
902226,Bovalino,907,38.149087,16.180584
902227,Briatico,968,38.725447,16.025765
902228,Calopezzati,1151,39.579022,16.819361
902229,Campora S.Giov. Serra Aiello,7114,39.068402,16.09102
902230,Capo Bonifati,808,39.558342,15.874052
902231,Capo Spartivento,924,37.924778,16.058342
902232,Cariati,1424,39.496884,16.952018
902233,Cassano All`Ionio,1599,39.726326,16.35218
902234,Caulonia,1890,38.343785,16.467278
902235,Cetraro,2072,39.512553,15.939263
902236,Cirella Majera`,2587,39.708556,15.812289
902237,Ciro',2176,39.368701,17.116997
902238,Condofuri,2345,37.92761,15.874952
902239,Cosenza,2442,39.318386,16.260955
902240,Cropani,2509,38.921968,16.813562
902241,Crotone,2512,39.0845,17.108418
902242,Crucoli,2516,39.449588,17.040718
902243,Diamante Buonvicino,2587,39.67701,15.824278
902244,Eccellente,2963,38.809696,16.232598
