{
  "version": 0.6,
  "generator": "Overpass API 0.7.62.11 87bfad18",
  "osm3s": {
    "timestamp_osm_base": "2026-06-05T07:50:30Z",
    "timestamp_areas_base": "2026-05-12T07:36:16Z",
    "copyright": "The data included in this document is from www.openstreetmap.org. The data is made available under ODbL."
  },
  "elements": [
    {
      "type": "node",
      "id": 470469868,
      "lat": 46.1140446,
      "lon": 12.5133307,
      "tags": {
        "name": "Falesia Casera Capovilla",
        "sport": "climbing"
      }
    },
    {
      "type": "node",
      "id": 1114892450,
      "lat": 46.2759524,
      "lon": 13.1430555,
      "tags": {
        "leisure": "sports_centre",
        "name": "Palestra di roccia del Glemine",
        "sport": "climbing",
        "wheelchair": "no"
      }
    },
    {
      "type": "node",
      "id": 1156451153,
      "lat": 46.0709642,
      "lon": 13.2355489,
      "tags": {
        "amenity": "bicycle_rental",
        "bicycle_rental": "docking_station",
        "capacity": "10",
        "name": "Caccia",
        "network": "UDINebike",
        "operator": "SSM & Comune di Udine",
        "ref": "Caccia"
      }
    },
    {
      "type": "node",
      "id": 1156451157,
      "lat": 46.062612,
      "lon": 13.230133,
      "tags": {
        "amenity": "bicycle_rental",
        "bicycle_rental": "dropoff_point",
        "capacity": "10",
        "name": "Magrini",
        "network": "UDINebike",
        "operator": "SSM & Comune di Udine",
        "ref": "Magrini"
      }
    },
    {
      "type": "node",
      "id": 1156451168,
      "lat": 46.0590613,
      "lon": 13.230904,
      "tags": {
        "amenity": "bicycle_rental",
        "bicycle_rental": "docking_station",
        "capacity": "10",
        "name": "Andreuzzi",
        "network": "UDINebike",
        "operator": "SSM & Comune di Udine",
        "ref": "Andreuzzi"
      }
    },
    {
      "type": "node",
      "id": 1156451171,
      "lat": 46.0582941,
      "lon": 13.2411636,
      "tags": {
        "amenity": "bicycle_rental",
        "bicycle_rental": "docking_station",
        "capacity": "13",
        "name": "Autostazione",
        "network": "UDINebike",
        "operator": "SSM & Comune di Udine",
        "ref": "Autostazione"
      }
    },
    {
      "type": "node",
      "id": 1156451179,
      "lat": 46.0618245,
      "lon": 13.2327437,
      "tags": {
        "amenity": "bicycle_rental",
        "bicycle_rental": "docking_station",
        "capacity": "10",
        "check_date": "2024-01-16",
        "fee": "yes",
        "name": "Poscolle",
        "network": "RideMovi",
        "payment:app": "yes",
        "ref": "Poscolle"
      }
    },
    {
      "type": "node",
      "id": 1156451183,
      "lat": 46.0559946,
      "lon": 13.2409211,
      "tags": {
        "amenity": "bicycle_rental",
        "bicycle_rental": "docking_station",
        "capacity": "20",
        "name": "Stazione FF.SS.",
        "network": "UDINebike",
        "operator": "SSM & Comune di Udine",
        "ref": "Stazione FF.SS."
      }
    },
    {
      "type": "node",
      "id": 1156451192,
      "lat": 46.0627315,
      "lon": 13.2367377,
      "tags": {
        "amenity": "bicycle_rental",
        "bicycle_rental": "docking_station",
        "capacity": "9",
        "name": "Duomo",
        "network": "UDINebike",
        "operator": "SSM & Comune di Udine",
        "ref": "Duomo"
      }
    },
    {
      "type": "node",
      "id": 1156451202,
      "lat": 46.0556164,
      "lon": 13.2459301,
      "tags": {
        "amenity": "bicycle_rental",
        "capacity": "10",
        "name": "Vascello",
        "network": "UDINebike",
        "operator": "SSM & Comune di Udine",
        "ref": "Vascello"
      }
    },
    {
      "type": "node",
      "id": 1156451212,
      "lat": 46.060702,
      "lon": 13.2273247,
      "tags": {
        "amenity": "bicycle_rental",
        "bicycle_rental": "docking_station",
        "capacity": "10",
        "name": "Moretti",
        "network": "UDINebike",
        "operator": "SSM & Comune di Udine",
        "ref": "Moretti"
      }
    },
    {
      "type": "node",
      "id": 1299514782,
      "lat": 46.4071169,
      "lon": 13.0412405,
      "tags": {
        "leisure": "sports_centre",
        "name": "Falesia del monte Strabut",
        "place": "locality",
        "sport": "climbing"
      }
    },
    {
      "type": "node",
      "id": 1605541854,
      "lat": 46.2892074,
      "lon": 13.0930693,
      "tags": {
        "name": "Palestra di roccia di Braulins",
        "sport": "climbing"
      }
    },
    {
      "type": "node",
      "id": 1736972651,
      "lat": 46.0701044,
      "lon": 12.5122437,
      "tags": {
        "name": "Palestra di Roccia PICCOLA",
        "sport": "climbing"
      }
    },
    {
      "type": "node",
      "id": 2212990862,
      "lat": 45.6943385,
      "lon": 13.7458522,
      "tags": {
        "name": "Falesia Napoleonica",
        "sport": "climbing"
      }
    },
    {
      "type": "node",
      "id": 2212990945,
      "lat": 45.6968383,
      "lon": 13.7429501,
      "tags": {
        "name": "Falesia Napoleonica",
        "sport": "climbing"
      }
    },
    {
      "type": "node",
      "id": 2465694178,
      "lat": 46.5278976,
      "lon": 13.5464768,
      "tags": {
        "climbing:bolted": "yes",
        "climbing:boulder": "no",
        "climbing:grade:french:max": "6a",
        "climbing:grade:french:min": "3a",
        "climbing:length": "17",
        "climbing:length:max": "20",
        "climbing:length:min": "8",
        "climbing:multipitch": "no",
        "climbing:quality": "solid",
        "climbing:rock": "limestone",
        "climbing:routes": "12",
        "climbing:sport": "yes",
        "climbing:toprope": "no",
        "ele": "925",
        "leisure": "sports_centre",
        "name": "Palestra della Val Bartolo - Camporosso",
        "outdoor": "yes",
        "sport": "climbing"
      }
    },
    {
      "type": "node",
      "id": 2466791454,
      "lat": 46.3801311,
      "lon": 12.4877243,
      "tags": {
        "name": "Palestra di roccia",
        "sport": "climbing"
      }
    },
    {
      "type": "node",
      "id": 2545662754,
      "lat": 46.6045698,
      "lon": 12.8711187,
      "tags": {
        "name": "Palestra Torre Carla Maria",
        "sport": "climbing"
      }
    },
    {
      "type": "node",
      "id": 2612432434,
      "lat": 45.9333455,
      "lon": 13.6070714,
      "tags": {
        "amenity": "bicycle_rental",
        "bicycle_rental": "docking_station",
        "capacity": "12",
        "name": "Stazione",
        "operator": "Comune di Gorizia",
        "website": "http://www3.comune.gorizia.it/it/gorizia-bici-bike-sharing"
      }
    },
    {
      "type": "node",
      "id": 2612432435,
      "lat": 45.9451566,
      "lon": 13.6246373,
      "tags": {
        "amenity": "bicycle_rental",
        "capacity": "14",
        "name": "Piazza Vittoria",
        "name:sl": "Travnik",
        "operator": "Comune di Gorizia",
        "website": "http://www3.comune.gorizia.it/it/gorizia-bici-bike-sharing"
      }
    },
    {
      "type": "node",
      "id": 2612432437,
      "lat": 45.9417276,
      "lon": 13.621702,
      "tags": {
        "amenity": "bicycle_rental",
        "capacity": "10-12",
        "name": "Piazza Municipio",
        "operator": "Comune di Gorizia",
        "website": "http://www3.comune.gorizia.it/it/gorizia-bici-bike-sharing"
      }
    },
    {
      "type": "node",
      "id": 2612432438,
      "lat": 45.9432626,
      "lon": 13.6188857,
      "tags": {
        "amenity": "bicycle_rental",
        "capacity": "10",
        "name": "Via Diaz",
        "operator": "Comune di Gorizia",
        "website": "http://www3.comune.gorizia.it/it/gorizia-bici-bike-sharing"
      }
    },
    {
      "type": "node",
      "id": 2622392461,
      "lat": 46.1906849,
      "lon": 12.7075534,
      "tags": {
        "leisure": "sports_centre",
        "name": "Val Colvera",
        "sport": "climbing"
      }
    },
    {
      "type": "node",
      "id": 2623346944,
      "lat": 45.7101366,
      "lon": 13.7659961,
      "tags": {
        "access": "private",
        "leisure": "swimming_pool",
        "name": "Avalon"
      }
    },
    {
      "type": "node",
      "id": 3007057014,
      "lat": 46.5179089,
      "lon": 13.4703022,
      "tags": {
        "climbing:bolted": "yes",
        "climbing:boulder": "no",
        "climbing:grade:french:max": "5b/c",
        "climbing:grade:french:min": "4c",
        "climbing:length": "12",
        "climbing:length:max": "14",
        "climbing:length:min": "10",
        "climbing:multipitch": "no",
        "climbing:quality": "solid",
        "climbing:rock": "limestone",
        "climbing:routes": "12",
        "climbing:sport": "yes",
        "climbing:toprope": "no",
        "ele": "925",
        "leisure": "sports_centre",
        "name": "Palestra di Ugovizza",
        "outdoor": "yes",
        "sport": "climbing"
      }
    },
    {
      "type": "node",
      "id": 3010137257,
      "lat": 45.7696021,
      "lon": 13.6221706,
      "tags": {
        "name": "Panza dell'Elefante",
        "natural": "cliff",
        "sport": "climbing"
      }
    },
    {
      "type": "node",
      "id": 3069035819,
      "lat": 45.9863596,
      "lon": 13.382376,
      "tags": {
        "name": "Club Alpino Italiano - Sezione Manzano",
        "office": "association",
        "operator": "Club Alpino Italiano",
        "operator:short": "CAI",
        "operator:wikidata": "Q795273",
        "source": "survey:CAI",
        "source:ref": "9222025",
        "sport": "climbing"
      }
    },
    {
      "type": "node",
      "id": 3107088534,
      "lat": 46.5162492,
      "lon": 13.324592,
      "tags": {
        "climbing:bolted": "yes",
        "climbing:boulder": "no",
        "climbing:grade:french:max": "7a-",
        "climbing:grade:french:min": "4c",
        "climbing:length": "18",
        "climbing:length:max": "20",
        "climbing:length:min": "16",
        "climbing:multipitch": "no",
        "climbing:quality": "solid",
        "climbing:rock": "limestone",
        "climbing:routes": "10",
        "climbing:sport": "yes",
        "climbing:toprope": "no",
        "ele": "625",
        "leisure": "sports_centre",
        "name": "Palestra di roccia Rio degli Uccelli - Settore Lomasti",
        "outdoor": "yes",
        "sport": "climbing"
      }
    },
    {
      "type": "node",
      "id": 3114868005,
      "lat": 45.9525398,
      "lon": 13.5451903,
      "tags": {
        "leisure": "horse_riding",
        "name": "Centro ippico Preval"
      }
    },
    {
      "type": "node",
      "id": 3314478017,
      "lat": 45.9536,
      "lon": 12.50505,
      "tags": {
        "addr:city": "Sacile",
        "addr:country": "IT",
        "addr:housenumber": "5",
        "addr:postcode": "33077",
        "addr:street": "Vicolo Macello",
        "club": "sport",
        "name": "Canoa Club Sacile",
        "sport": "canoe",
        "website": "https://www.canoaclubsacile.com/"
      }
    },
    {
      "type": "node",
      "id": 3528939159,
      "lat": 46.4523325,
      "lon": 12.7662692,
      "tags": {
        "climbing": "crag",
        "climbing:grade:french:max": "8a+",
        "climbing:grade:french:min": "5c",
        "climbing:sport": "yes",
        "name": "Falesia ame Ŝtege",
        "sport": "climbing",
        "website": "https://aipiedidellecarniche.com/2022/03/08/falesia-ame-stege-sauris/"
      }
    },
    {
      "type": "node",
      "id": 3624567208,
      "lat": 46.5541613,
      "lon": 12.8129453,
      "tags": {
        "leisure": "sports_centre",
        "name": "Arrampicata",
        "sport": "climbing"
      }
    },
    {
      "type": "node",
      "id": 3631756526,
      "lat": 46.6027096,
      "lon": 12.9428483,
      "tags": {
        "leisure": "sports_centre",
        "sport": "climbing"
      }
    },
    {
      "type": "node",
      "id": 3633911789,
      "lat": 45.6461828,
      "lon": 13.7596921,
      "tags": {
        "addr:city": "Trieste",
        "addr:housenumber": "2",
        "addr:postcode": "34123",
        "addr:street": "Pontile Istria",
        "club": "sport",
        "name": "Società Triestina Canottieri Adria 1877",
        "phone": "+39 040 304650",
        "sport": "canoe",
        "website": "https://www.canottieriadria1877.com/"
      }
    },
    {
      "type": "node",
      "id": 3661330576,
      "lat": 45.6831074,
      "lon": 13.1289392,
      "tags": {
        "addr:city": "Lignano Sabbiadoro",
        "addr:housenumber": "18a",
        "addr:postcode": "33054",
        "addr:street": "Viale Centrale",
        "amenity": "bicycle_rental",
        "bicycle_rental": "shop",
        "fee": "yes",
        "name": "Noleggio Bici Arco",
        "shop": "rental",
        "source": "survey"
      }
    },
    {
      "type": "node",
      "id": 3661351920,
      "lat": 45.6660423,
      "lon": 13.1015978,
      "tags": {
        "addr:city": "Lignano Sabbiadoro",
        "addr:housenumber": "58",
        "addr:postcode": "33054",
        "addr:street": "Arco del Libeccio",
        "amenity": "bicycle_rental",
        "bicycle_rental": "shop",
        "name": "Ciclopoli",
        "shop": "rental",
        "wheelchair": "yes"
      }
    },
    {
      "type": "node",
      "id": 3676499568,
      "lat": 46.3864994,
      "lon": 13.4641687,
      "tags": {
        "leisure": "sports_centre",
        "name": "Palestra di roccia \"Nut\"",
        "sport": "climbing"
      }
    },
    {
      "type": "node",
      "id": 3777084376,
      "lat": 46.2362814,
      "lon": 12.967492,
      "tags": {
        "leisure": "sports_centre",
        "name": "Palestra di roccia del Masarach",
        "sport": "climbing"
      }
    },
    {
      "type": "node",
      "id": 3781183917,
      "lat": 46.3058304,
      "lon": 13.1499906,
      "tags": {
        "climbing:bolted": "yes",
        "climbing:boulder": "no",
        "climbing:grade:french:max": "7c+",
        "climbing:grade:french:min": "5c/6a",
        "climbing:length": "unknown",
        "climbing:length:max": "unknown",
        "climbing:length:min": "unknown",
        "climbing:multipitch": "yes",
        "climbing:quality": "solid",
        "climbing:rock": "limestone",
        "climbing:routes": "26",
        "climbing:sport": "yes",
        "climbing:toprope": "no",
        "ele": "570",
        "leisure": "sports_centre",
        "name": "Palestra di roccia del Ventaglio",
        "outdoor": "yes",
        "sport": "climbing",
        "wheelchair": "no"
      }
    },
    {
      "type": "node",
      "id": 3896516259,
      "lat": 46.2351788,
      "lon": 12.9623178,
      "tags": {
        "addr:city": "Vito d'Asio",
        "addr:housenumber": "8",
        "addr:postcode": "33090",
        "addr:street": "Piazza Centrale",
        "amenity": "bicycle_rental",
        "description": "Noleggio e vendita ebike",
        "name": "emotionArzino",
        "network": "Punto noleggio con itinerari dedicati",
        "opening_hours": "Sa-Su 8:30-18:30",
        "payment:bancomat": "yes",
        "payment:cash": "yes",
        "phone": "+39 339 163 4971",
        "shop": "bicycle",
        "website": "https://www.emotionarzino.it",
        "wheelchair": "yes"
      }
    },
    {
      "type": "node",
      "id": 4264756348,
      "lat": 46.451309,
      "lon": 13.2043752,
      "tags": {
        "fixme": "Exact position needs survey",
        "leisure": "sports_centre",
        "name": "Masso del Masereit",
        "natural": "rock",
        "sport": "climbing"
      }
    },
    {
      "type": "node",
      "id": 4304782499,
      "lat": 46.5164073,
      "lon": 13.323085,
      "tags": {
        "climbing:bolted": "yes",
        "climbing:boulder": "no",
        "climbing:grade:french:max": "6b+",
        "climbing:grade:french:min": "5c",
        "climbing:length": "21",
        "climbing:length:max": "22",
        "climbing:length:min": "20",
        "climbing:multipitch": "no",
        "climbing:quality": "solid",
        "climbing:rock": "limestone",
        "climbing:routes": "3",
        "climbing:sport": "yes",
        "climbing:toprope": "no",
        "ele": "665",
        "leisure": "sports_centre",
        "name": "Palestra di roccia Rio degli Uccelli - Placca Alta",
        "outdoor": "yes",
        "sport": "climbing"
      }
    },
    {
      "type": "node",
      "id": 4306347054,
      "lat": 46.4629968,
      "lon": 13.6152295,
      "tags": {
        "climbing:bolted": "yes",
        "climbing:boulder": "no",
        "climbing:grade:french:max": "6b+",
        "climbing:grade:french:min": "3b",
        "climbing:length": "40",
        "climbing:length:max": "84",
        "climbing:length:min": "15",
        "climbing:multipitch": "yes",
        "climbing:quality": "solid",
        "climbing:rock": "limestone",
        "climbing:routes": "15",
        "climbing:sport": "yes",
        "climbing:toprope": "no",
        "ele": "1040",
        "leisure": "sports_centre",
        "name": "Palestra di roccia Val Romana Alta",
        "outdoor": "yes",
        "sport": "climbing"
      }
    },
    {
      "type": "node",
      "id": 4306347055,
      "lat": 46.465515,
      "lon": 13.6128316,
      "tags": {
        "climbing:bolted": "yes",
        "climbing:boulder": "no",
        "climbing:grade:french:max": "6a+",
        "climbing:grade:french:min": "4c",
        "climbing:length": "26",
        "climbing:length:max": "28",
        "climbing:length:min": "10",
        "climbing:multipitch": "no",
        "climbing:quality": "solid",
        "climbing:rock": "limestone",
        "climbing:routes": "23",
        "climbing:sport": "yes",
        "climbing:toprope": "no",
        "ele": "1010",
        "leisure": "sports_centre",
        "name": "Palestra di roccia Val Romana Bassa",
        "outdoor": "yes",
        "sport": "climbing"
      }
    },
    {
      "type": "node",
      "id": 4546034291,
      "lat": 46.0666958,
      "lon": 13.217714,
      "tags": {
        "amenity": "bicycle_rental"
      }
    },
    {
      "type": "node",
      "id": 4594354680,
      "lat": 46.289246,
      "lon": 13.089948,
      "tags": {
        "sport": "climbing"
      }
    },
    {
      "type": "node",
      "id": 4774303059,
      "lat": 46.0665133,
      "lon": 13.2331723,
      "tags": {
        "amenity": "bicycle_rental",
        "bicycle_rental": "dropoff_point",
        "name": "Petracco",
        "operator": "Comune di Udine",
        "ref": "17",
        "website": "http://www.comune.udine.gov.it/udinebike"
      }
    },
    {
      "type": "node",
      "id": 4987073399,
      "lat": 46.2025477,
      "lon": 12.8686077,
      "tags": {
        "addr:city": "Travesio",
        "addr:postcode": "33090",
        "addr:street": "Via Breli",
        "leisure": "fitness_station",
        "name": "Palestra di roccia, Falesia di Travesio",
        "sport": "climbing"
      }
    },
    {
      "type": "node",
      "id": 5119961989,
      "lat": 46.4553419,
      "lon": 13.2218499,
      "tags": {
        "natural": "rock",
        "sport": "climbing"
      }
    },
    {
      "type": "node",
      "id": 5513965370,
      "lat": 46.1150435,
      "lon": 13.1881924,
      "tags": {
        "addr:housenumber": "11",
        "addr:street": "Via Villa Colombatti",
        "leisure": "horse_riding",
        "name": "Circolo Ippico BIBOP"
      }
    },
    {
      "type": "node",
      "id": 5588039220,
      "lat": 46.2184048,
      "lon": 12.8990999,
      "tags": {
        "alt_name": "Almàdis",
        "climbing:grade:french:max": "7a",
        "climbing:grade:french:min": "3a",
        "climbing:sport": "25",
        "name": "Guardie",
        "sport": "climbing",
        "website": "https://www.webandana.com/crags/pn/almadis.html"
      }
    },
    {
      "type": "node",
      "id": 5774068570,
      "lat": 46.0787617,
      "lon": 13.2237257,
      "tags": {
        "amenity": "bicycle_rental",
        "bicycle_rental": "docking_station"
      }
    },
    {
      "type": "node",
      "id": 5798518274,
      "lat": 46.3616969,
      "lon": 13.030732,
      "tags": {
        "climbing:grade:french:max": "7c",
        "climbing:grade:french:min": "5c",
        "climbing:sport": "19",
        "name": "Falesia di Cavazzo",
        "sport": "climbing",
        "website": "https://www.falesia.it/en/crag/241/cavazzo.html"
      }
    },
    {
      "type": "node",
      "id": 5836331562,
      "lat": 46.2385216,
      "lon": 12.9588402,
      "tags": {
        "leisure": "sports_centre",
        "name": "For di Martin",
        "sport": "climbing"
      }
    },
    {
      "type": "node",
      "id": 5844362367,
      "lat": 46.061176,
      "lon": 13.2423246,
      "tags": {
        "amenity": "bicycle_rental",
        "bicycle_rental": "docking_station",
        "capacity": "10",
        "wheelchair": "yes"
      }
    },
    {
      "type": "node",
      "id": 5872302482,
      "lat": 46.077472,
      "lon": 13.2353201,
      "tags": {
        "amenity": "bicycle_rental",
        "bicycle_rental": "docking_station",
        "capacity": "10",
        "name": "Chiavris",
        "network": "UDINebike",
        "operator": "SSM & Comune di Udine"
      }
    },
    {
      "type": "node",
      "id": 5873222850,
      "lat": 46.0712722,
      "lon": 13.2422402,
      "tags": {
        "amenity": "bicycle_rental",
        "bicycle_rental": "docking_station",
        "capacity": "10",
        "name": "Planis",
        "network": "UDINebike",
        "operator": "SSM & Comune di Udine"
      }
    },
    {
      "type": "node",
      "id": 5881633514,
      "lat": 46.0552365,
      "lon": 13.2293083,
      "tags": {
        "amenity": "bicycle_rental",
        "bicycle_rental": "docking_station"
      }
    },
    {
      "type": "node",
      "id": 6051307020,
      "lat": 46.0790803,
      "lon": 13.2149126,
      "tags": {
        "amenity": "bicycle_rental"
      }
    },
    {
      "type": "node",
      "id": 6119548451,
      "lat": 46.1055838,
      "lon": 12.5234804,
      "tags": {
        "email": "info@rampypark.it",
        "leisure": "sports_centre",
        "name": "Parco acrobatico forestale Rampy Park Piancavallo",
        "phone": "+39 345 015 5436",
        "sport": "climbing",
        "tourism": "attraction",
        "website": "https://www.rampypark.it/"
      }
    },
    {
      "type": "node",
      "id": 6155569106,
      "lat": 46.2738236,
      "lon": 13.1344268,
      "tags": {
        "climbing": "boulder",
        "fee": "yes",
        "name": "Sala Boulder Città di Gemona",
        "operator": "Club Alpino Italiano - Sezione di Gemona",
        "sport": "climbing"
      }
    },
    {
      "type": "node",
      "id": 6205569743,
      "lat": 46.0738013,
      "lon": 12.5124633,
      "tags": {
        "name": "Palestra di roccia GRANDE",
        "sport": "climbing"
      }
    },
    {
      "type": "node",
      "id": 6212857354,
      "lat": 46.0595054,
      "lon": 13.235911,
      "tags": {
        "amenity": "bicycle_rental"
      }
    },
    {
      "type": "node",
      "id": 6513304313,
      "lat": 46.0663187,
      "lon": 13.2445452,
      "tags": {
        "amenity": "bicycle_rental"
      }
    },
    {
      "type": "node",
      "id": 6528494296,
      "lat": 46.0674345,
      "lon": 13.2251141,
      "tags": {
        "amenity": "bicycle_rental"
      }
    },
    {
      "type": "node",
      "id": 7126639599,
      "lat": 46.415762,
      "lon": 12.9345775,
      "tags": {
        "climbing:grade:french:max": "8a",
        "climbing:grade:french:min": "6a",
        "climbing:sport": "28",
        "name": "Madrabau",
        "sport": "climbing",
        "website": "https://www.falesia.it/it/sector/932/villa-santina/madrabau.html"
      }
    },
    {
      "type": "node",
      "id": 7183903568,
      "lat": 45.6752935,
      "lon": 13.7554541,
      "tags": {
        "amenity": "bicycle_rental",
        "bicycle_rental": "docking_station",
        "brand": "BiTS",
        "brand:wikidata": "Q109122647",
        "capacity": "9",
        "contact:whatsapp": "+39 348 5103240",
        "email": "help@weelo.it",
        "name": "Park Bovedo",
        "network": "BiTS",
        "operator": "Weelo",
        "operator:wikidata": "Q108937937",
        "payment:app": "yes",
        "payment:credit_cards": "yes",
        "phone": "+39 011 0142607",
        "ref": "10",
        "website": "https://api.weelo.it/urlguide/Trieste/homepage.ita.htmlcom/frmLeStazioniComune.aspx?ID=266"
      }
    },
    {
      "type": "node",
      "id": 7183903569,
      "lat": 45.6394482,
      "lon": 13.797774,
      "tags": {
        "amenity": "bicycle_rental",
        "brand": "BiTS",
        "brand:wikidata": "Q109122647",
        "capacity": "12",
        "contact:whatsapp": "+39 348 5103240",
        "email": "info@bicincitta.com",
        "facebook": "https://www.facebook.com/NetworkBicincitta",
        "name": "Cumano - Musei",
        "network": "BiTS",
        "operator": "BicinCittà",
        "operator:wikidata": "Q108937937",
        "payment:credit_cards": "yes",
        "phone": "+39 011 0142607",
        "ref": "9",
        "website": "http://www.bicincitta.com/frmLeStazioniComune.aspx?ID=266"
      }
    },
    {
      "type": "node",
      "id": 7183903570,
      "lat": 45.6526797,
      "lon": 13.784511,
      "tags": {
        "amenity": "bicycle_rental",
        "bicycle_rental": "docking_station",
        "brand": "BiTS",
        "brand:wikidata": "Q109122647",
        "capacity": "14",
        "contact:whatsapp": "+39 348 5103240",
        "email": "info@bicincitta.com",
        "facebook": "https://www.facebook.com/NetworkBicincitta",
        "name": "Teatro Rossetti",
        "network": "BiTS",
        "operator": "BicinCittà",
        "operator:type": "private",
        "operator:wikidata": "Q108937937",
        "payment:credit_cards": "yes",
        "phone": "+39 011 0142607",
        "ref": "8",
        "website": "http://www.bicincitta.com/frmLeStazioniComune.aspx?ID=266"
      }
    },
    {
      "type": "node",
      "id": 7183903571,
      "lat": 45.6827146,
      "lon": 13.7509151,
      "tags": {
        "amenity": "bicycle_rental",
        "bicycle_rental": "docking_station",
        "brand": "BiTS",
        "brand:wikidata": "Q109122647",
        "capacity": "16",
        "contact:whatsapp": "+39 348 5103240",
        "email": "info@bicincitta.com",
        "facebook": "https://www.facebook.com/NetworkBicincitta",
        "name": "Barcola",
        "network": "BiTS",
        "operator": "BicinCittà",
        "operator:wikidata": "Q108937937",
        "payment:credit_cards": "yes",
        "phone": "+39 011 0142607",
        "ref": "7",
        "website": "http://www.bicincitta.com/frmLeStazioniComune.aspx?ID=266"
      }
    },
    {
      "type": "node",
      "id": 7183903572,
      "lat": 45.6454976,
      "lon": 13.75762,
      "tags": {
        "amenity": "bicycle_rental",
        "brand": "BiTS",
        "brand:wikidata": "Q109122647",
        "capacity": "16",
        "contact:whatsapp": "+39 348 5103240",
        "email": "info@bicincitta.com",
        "facebook": "https://www.facebook.com/NetworkBicincitta",
        "name": "Stazione Rogers",
        "network": "BiTS",
        "operator": "BicinCittà",
        "operator:type": "private",
        "operator:wikidata": "Q108937937",
        "payment:credit_cards": "yes",
        "phone": "+39 011 0142607",
        "ref": "6",
        "website": "http://www.bicincitta.com/frmLeStazioniComune.aspx?ID=266"
      }
    },
    {
      "type": "node",
      "id": 7183903573,
      "lat": 45.6468712,
      "lon": 13.7646333,
      "tags": {
        "amenity": "bicycle_rental",
        "bicycle_rental": "docking_station",
        "brand": "BiTS",
        "brand:wikidata": "Q109122647",
        "capacity": "10",
        "contact:whatsapp": "+39 348 5103240",
        "email": "info@bicincitta.com",
        "facebook": "https://www.facebook.com/NetworkBicincitta",
        "name": "Piazza Hortis",
        "network": "BiTS",
        "operator": "BicinCittà",
        "operator:type": "private",
        "operator:wikidata": "Q108937937",
        "payment:credit_cards": "yes",
        "phone": "+39 011 0142607",
        "ref": "5",
        "website": "http://www.bicincitta.com/frmLeStazioniComune.aspx?ID=266"
      }
    },
    {
      "type": "node",
      "id": 7183903574,
      "lat": 45.6490743,
      "lon": 13.7650377,
      "tags": {
        "amenity": "bicycle_rental",
        "bicycle_rental": "docking_station",
        "brand": "BiTS",
        "brand:wikidata": "Q109122647",
        "capacity": "20",
        "contact:whatsapp": "+39 348 5103240",
        "email": "info@bicincitta.com",
        "facebook": "https://www.facebook.com/NetworkBicincitta",
        "name": "Stazione marittima",
        "network": "BiTS",
        "operator": "BicinCittà",
        "operator:type": "private",
        "operator:wikidata": "Q108937937",
        "payment:credit_cards": "yes",
        "phone": "+39 011 0142607",
        "ref": "4",
        "website": "http://www.bicincitta.com/frmLeStazioniComune.aspx?ID=266"
      }
    },
    {
      "type": "node",
      "id": 7183903575,
      "lat": 45.6494774,
      "lon": 13.7719987,
      "tags": {
        "amenity": "bicycle_rental",
        "bicycle_rental": "docking_station",
        "brand": "BiTS",
        "brand:wikidata": "Q109122647",
        "capacity": "20",
        "contact:whatsapp": "+39 348 5103240",
        "email": "info@bicincitta.com",
        "facebook": "https://www.facebook.com/NetworkBicincitta",
        "name": "Teatro romano",
        "network": "BiTS",
        "operator": "BicinCittà",
        "operator:type": "private",
        "operator:wikidata": "Q108937937",
        "payment:credit_cards": "yes",
        "phone": "+39 011 0142607",
        "ref": "3",
        "website": "http://www.bicincitta.com/frmLeStazioniComune.aspx?ID=266"
      }
    },
    {
      "type": "node",
      "id": 7183903576,
      "lat": 45.6539266,
      "lon": 13.775627,
      "tags": {
        "amenity": "bicycle_rental",
        "bicycle_rental": "docking_station",
        "brand": "BiTS",
        "brand:wikidata": "Q109122647",
        "capacity": "15",
        "contact:whatsapp": "+39 348 5103240",
        "email": "help@weelo.it",
        "fee": "yes",
        "name": "Oberdan",
        "network": "BiTS",
        "operator": "BicinCittà",
        "operator:type": "private",
        "operator:wikidata": "Q108937937",
        "payment:app": "yes",
        "payment:credit_cards": "yes",
        "phone": "+39 011 0142607",
        "ref": "2",
        "website": "https://api.weelo.it/urlguide/Trieste/homepage.ita.html"
      }
    },
    {
      "type": "node",
      "id": 7183903577,
      "lat": 45.6570824,
      "lon": 13.772272,
      "tags": {
        "amenity": "bicycle_rental",
        "bicycle_rental": "docking_station",
        "brand": "BiTS",
        "brand:wikidata": "Q109122647",
        "capacity": "21",
        "contact:whatsapp": "+39 348 5103240",
        "email": "info@bicincitta.com",
        "facebook": "https://www.facebook.com/NetworkBicincitta",
        "name": "Piazza Libertà - Stazione",
        "network": "BiTS",
        "operator": "BicinCittà",
        "operator:type": "private",
        "operator:wikidata": "Q108937937",
        "payment:credit_cards": "yes",
        "phone": "+39 011 0142607",
        "ref": "1",
        "website": "http://www.bicincitta.com/frmLeStazioniComune.aspx?ID=266"
      }
    },
    {
      "type": "node",
      "id": 7196041523,
      "lat": 46.229741,
      "lon": 12.8854957,
      "tags": {
        "climbing:grade:french:max": "7c+",
        "climbing:grade:french:min": "5c",
        "climbing:sport": "17",
        "name": "Cuargnui - Palestra Grande",
        "sport": "climbing",
        "website": "https://www.webandana.com/crags/pn/cuargnui01.html"
      }
    },
    {
      "type": "node",
      "id": 7196041620,
      "lat": 46.2257553,
      "lon": 12.8940627,
      "tags": {
        "climbing:grade:french:max": "6c",
        "climbing:grade:french:min": "4a",
        "climbing:sport": "28",
        "name": "Cuargnui",
        "sport": "climbing",
        "website": "https://www.webandana.com/crags/pn/cuargnui01.html"
      }
    },
    {
      "type": "node",
      "id": 7890725994,
      "lat": 46.5666445,
      "lon": 12.7001963,
      "tags": {
        "building": "yes",
        "fee": "yes",
        "leisure": "sports_centre",
        "sport": "climbing"
      }
    },
    {
      "type": "node",
      "id": 7938678267,
      "lat": 45.6698631,
      "lon": 13.7586994,
      "tags": {
        "amenity": "bicycle_rental",
        "brand": "BiTS",
        "contact:whatsapp": "+39 348 5103240",
        "email": "help@weelo.it",
        "fee": "yes",
        "name": "Porto Vecchio - Viale Miramare",
        "network": "BiTS",
        "not:brand:wikidata": "Q109122647",
        "operator": "Weelo",
        "operator:wikidata": "Q108937937",
        "payment:app": "yes",
        "payment:credit_cards": "yes",
        "phone": "+39 011 0142607",
        "ref": "12",
        "website": "https://api.weelo.it/urlguide/Trieste/homepage.ita.html"
      }
    },
    {
      "type": "node",
      "id": 8082676090,
      "lat": 46.1147196,
      "lon": 13.4788523,
      "tags": {
        "leisure": "sports_centre",
        "sport": "climbing"
      }
    },
    {
      "type": "node",
      "id": 8082676091,
      "lat": 46.115032,
      "lon": 13.4790995,
      "tags": {
        "leisure": "sports_centre",
        "sport": "climbing"
      }
    },
    {
      "type": "node",
      "id": 8296594155,
      "lat": 45.9385661,
      "lon": 13.6127932,
      "tags": {
        "amenity": "bicycle_rental",
        "bicycle_rental": "docking_station",
        "capacity": "8",
        "name": "Parco della Rimembranza",
        "operator": "Comune di Gorizia",
        "website": "http://www3.comune.gorizia.it/it/gorizia-bici-bike-sharing"
      }
    },
    {
      "type": "node",
      "id": 8296594156,
      "lat": 45.9411076,
      "lon": 13.6292659,
      "tags": {
        "amenity": "bicycle_rental",
        "bicycle_rental": "docking_station",
        "capacity": "10",
        "name": "via Alviano",
        "name:sl": "Alvianova ulica",
        "operator": "Comune di Gorizia",
        "website": "http://www3.comune.gorizia.it/it/gorizia-bici-bike-sharing"
      }
    },
    {
      "type": "node",
      "id": 8296594157,
      "lat": 45.9413212,
      "lon": 13.6147562,
      "tags": {
        "amenity": "bicycle_rental",
        "capacity": "8",
        "name": "via Manzoni",
        "operator": "Comune di Gorizia",
        "website": "http://www3.comune.gorizia.it/it/gorizia-bici-bike-sharing"
      }
    },
    {
      "type": "node",
      "id": 8296594158,
      "lat": 45.9464073,
      "lon": 13.6215825,
      "tags": {
        "amenity": "bicycle_rental",
        "capacity": "8",
        "name": "Mercato coperto",
        "name:sl": "Pokrita tržnica",
        "operator": "Comune di Gorizia",
        "website": "http://www3.comune.gorizia.it/it/gorizia-bici-bike-sharing"
      }
    },
    {
      "type": "node",
      "id": 8873512868,
      "lat": 45.6665977,
      "lon": 13.7604629,
      "tags": {
        "amenity": "bicycle_rental",
        "brand": "BiTS",
        "capacity": "12",
        "contact:whatsapp": "+39 348 5103240",
        "email": "help@weelo.it",
        "fee": "yes",
        "name": "Porto Vecchio - Polo Museale",
        "network": "BiTS",
        "not:brand:wikidata": "Q109122647",
        "operator": "Weelo",
        "operator:wikidata": "Q108937937",
        "payment:app": "yes",
        "payment:credit_cards": "yes",
        "phone": "+39 011 0142607",
        "ref": "11",
        "website": "https://api.weelo.it/urlguide/Trieste/homepage.ita.html"
      }
    },
    {
      "type": "node",
      "id": 8977316844,
      "lat": 46.5843894,
      "lon": 12.7544992,
      "tags": {
        "name": "Palestra di roccia su casa",
        "sport": "climbing"
      }
    },
    {
      "type": "node",
      "id": 8993602606,
      "lat": 46.1943497,
      "lon": 12.711342,
      "tags": {
        "leisure": "sports_centre",
        "sport": "climbing"
      }
    },
    {
      "type": "node",
      "id": 8993622910,
      "lat": 46.1890095,
      "lon": 12.7058739,
      "tags": {
        "leisure": "sports_centre",
        "sport": "climbing"
      }
    },
    {
      "type": "node",
      "id": 9628949924,
      "lat": 46.1949478,
      "lon": 12.7108658,
      "tags": {
        "leisure": "sports_centre",
        "sport": "climbing"
      }
    },
    {
      "type": "node",
      "id": 9628949925,
      "lat": 46.0647164,
      "lon": 12.5454584,
      "tags": {
        "leisure": "sports_centre",
        "sport": "climbing"
      }
    },
    {
      "type": "node",
      "id": 9773748417,
      "lat": 45.6545446,
      "lon": 13.7715967,
      "tags": {
        "amenity": "bicycle_rental",
        "website": "http://triestegreentour.it"
      }
    },
    {
      "type": "node",
      "id": 9806276349,
      "lat": 45.6046769,
      "lon": 13.7714821,
      "tags": {
        "addr:city": "Muggia / Milje",
        "addr:housenumber": "17",
        "addr:postcode": "34015",
        "addr:street": "Via Cesare Battisti",
        "club": "sport",
        "name": "Società Nautica Giacinto Pullino",
        "sport": "canoe",
        "website": "https://www.snpullino.it/"
      }
    },
    {
      "type": "node",
      "id": 9872443179,
      "lat": 45.6483052,
      "lon": 13.7787175,
      "tags": {
        "amenity": "bicycle_rental",
        "bicycle_rental": "docking_station",
        "brand": "BiTS",
        "brand:wikidata": "Q109122647",
        "capacity": "12",
        "name": "BiTS 13 - Largo Barriera",
        "network": "BiTS",
        "operator": "BicinCittà",
        "operator:type": "private",
        "operator:wikidata": "Q108937937",
        "ref": "13"
      }
    },
    {
      "type": "node",
      "id": 9872443180,
      "lat": 45.6401249,
      "lon": 13.7882637,
      "tags": {
        "amenity": "bicycle_rental",
        "bicycle_rental": "docking_station",
        "brand": "BiTS",
        "brand:wikidata": "Q109122647",
        "name": "Piazza Foraggi",
        "network": "BiTS",
        "operator": "BicinCittà",
        "operator:type": "private",
        "operator:wikidata": "Q108937937",
        "ref": "14"
      }
    },
    {
      "type": "node",
      "id": 9872443181,
      "lat": 45.6548508,
      "lon": 13.77816,
      "tags": {
        "amenity": "bicycle_rental",
        "brand": "BiTS",
        "brand:wikidata": "Q109122647",
        "name": "Foro Ulpiano",
        "network": "BiTS",
        "operator": "BicinCittà",
        "operator:type": "private",
        "operator:wikidata": "Q108937937",
        "ref": "15"
      }
    },
    {
      "type": "node",
      "id": 9872443182,
      "lat": 45.6443748,
      "lon": 13.7826113,
      "tags": {
        "amenity": "bicycle_rental",
        "brand": "BiTS",
        "brand:wikidata": "Q109122647",
        "name": "Largo Sonnino",
        "network": "BiTS",
        "operator": "BicinCittà",
        "operator:type": "private",
        "operator:wikidata": "Q108937937",
        "ref": "16"
      }
    },
    {
      "type": "node",
      "id": 9872443183,
      "lat": 45.6517395,
      "lon": 13.7777818,
      "tags": {
        "amenity": "bicycle_rental",
        "bicycle_rental": "docking_station",
        "brand": "BiTS",
        "brand:wikidata": "Q109122647",
        "capacity": "10",
        "name": "Battisti",
        "network": "BiTS",
        "operator": "BicinCittà",
        "operator:type": "private",
        "operator:wikidata": "Q108937937",
        "ref": "17"
      }
    },
    {
      "type": "node",
      "id": 9872443184,
      "lat": 45.6546595,
      "lon": 13.7977337,
      "tags": {
        "amenity": "bicycle_rental",
        "bicycle_rental": "docking_station",
        "brand": "BiTS",
        "brand:wikidata": "Q109122647",
        "name": "Rotonda Boschetto",
        "network": "BiTS",
        "operator": "BicinCittà",
        "operator:type": "private",
        "operator:wikidata": "Q108937937",
        "ref": "18"
      }
    },
    {
      "type": "node",
      "id": 9872443185,
      "lat": 45.6390405,
      "lon": 13.7716798,
      "tags": {
        "amenity": "bicycle_rental",
        "brand": "BiTS",
        "brand:wikidata": "Q109122647",
        "check_date": "2026-05-13",
        "name": "Campi Elisi",
        "network": "BiTS",
        "operator": "BicinCittà",
        "operator:type": "private",
        "operator:wikidata": "Q108937937",
        "ref": "19"
      }
    },
    {
      "type": "node",
      "id": 9989055429,
      "lat": 45.6842053,
      "lon": 13.1347091,
      "tags": {
        "addr:city": "Lignano Sabbiadoro",
        "addr:housenumber": "34",
        "addr:postcode": "33054",
        "addr:street": "Via Lilienfeld",
        "amenity": "bicycle_rental",
        "bicycle_rental": "shop",
        "fee": "yes",
        "name": "Noleggio Luna",
        "operator": "Renato Bertoli",
        "phone": "+39 347 781 0500",
        "shop": "rental",
        "source": "survey",
        "website": "https://noleggioluna.business.site/"
      }
    },
    {
      "type": "node",
      "id": 9995496699,
      "lat": 45.6871103,
      "lon": 13.1333803,
      "tags": {
        "amenity": "bicycle_rental",
        "bicycle_rental": "shop",
        "contact:city": "Lignano Sabbiadoro",
        "contact:housenumber": "121",
        "contact:postcode": "33054",
        "contact:street": "Via Latisana",
        "name": "Teknobike",
        "opening_hours": "Tu-Sa 08:00-12:00, Tu-Fr 15:00-17:00",
        "operator": "Panaro Gianluca",
        "phone": "+39 349 292 5548",
        "rental": "city_bike;e-bike",
        "service:bicycle:pump": "yes",
        "service:bicycle:repair": "yes",
        "service:bicycle:retail": "yes",
        "service:bicycle:second_hand": "yes",
        "shop": "bicycle",
        "start_date": "1998",
        "website": "https://www.pajarobici3.it/",
        "wheelchair": "yes"
      }
    },
    {
      "type": "node",
      "id": 10098286196,
      "lat": 45.6230629,
      "lon": 13.8732651,
      "tags": {
        "name": "Sokoli (Falchi, Falchetti)",
        "sport": "climbing"
      }
    },
    {
      "type": "node",
      "id": 10736715545,
      "lat": 46.0746522,
      "lon": 13.4749112,
      "tags": {
        "leisure": "horse_riding"
      }
    },
    {
      "type": "node",
      "id": 10821156069,
      "lat": 46.2755839,
      "lon": 13.1323921,
      "tags": {
        "amenity": "bicycle_rental",
        "contact:email": "info@funandbike.it",
        "contact:phone": "+39 0432 190 2936",
        "name": "Fun & Bike Gemona",
        "website": "https://www.funandbike.it/"
      }
    },
    {
      "type": "node",
      "id": 10971454847,
      "lat": 46.4579399,
      "lon": 13.6893704,
      "tags": {
        "climbing:grade:french:max": "6a",
        "climbing:grade:uiaa:min": "3+",
        "climbing:sport": "19",
        "name": "Palestra delle Ponze - Rif. Zacchi",
        "sport": "climbing",
        "website": "https://www.tarvisiano.org/it/18491/palestra-delle-ponze-rif-zacchi"
      }
    },
    {
      "type": "node",
      "id": 11256817217,
      "lat": 45.6772348,
      "lon": 13.4005581,
      "tags": {
        "leisure": "swimming_pool"
      }
    },
    {
      "type": "node",
      "id": 11259880366,
      "lat": 46.5189389,
      "lon": 12.8397962,
      "tags": {
        "access": "yes",
        "fee": "no",
        "leisure": "sports_centre",
        "name": "Torre Cladump",
        "opening_hours": "24/7",
        "sport": "climbing"
      }
    },
    {
      "type": "node",
      "id": 11284308384,
      "lat": 45.6483699,
      "lon": 13.0954866,
      "tags": {
        "amenity": "bicycle_rental",
        "bicycle_rental": "shop",
        "check_date:opening_hours": "2025-08-20",
        "name": "BikeandGo",
        "opening_hours:signed": "no",
        "repair": "yes",
        "shop": "rental",
        "website": "https://bikeandgo.it/it/prenotazione-lignano-passo-barca.html",
        "wheelchair": "yes"
      }
    },
    {
      "type": "node",
      "id": 11462290007,
      "lat": 45.6238902,
      "lon": 13.8728196,
      "tags": {
        "leisure": "sports_hall",
        "name": "Piccola Ferrovia 1 e 2 (palestra di roccia)",
        "sport": "climbing"
      }
    },
    {
      "type": "node",
      "id": 11486121122,
      "lat": 45.6635821,
      "lon": 13.7692794,
      "tags": {
        "amenity": "bicycle_rental",
        "bicycle_rental": "docking_station",
        "brand": "BiTS",
        "brand:wikidata": "Q109122647",
        "fee": "yes",
        "name": "BiTS 21 - Largo Roiano",
        "network": "BiTS",
        "operator": "BicinCittà",
        "operator:type": "public",
        "operator:wikidata": "Q108937937",
        "website": "https://mobilitasostenibile.comune.trieste.it/"
      }
    },
    {
      "type": "node",
      "id": 11830017518,
      "lat": 45.7895828,
      "lon": 13.07905,
      "tags": {
        "amenity": "bicycle_rental",
        "bicycle_rental": "docking_station",
        "capacity": "12",
        "name": "FRIbike",
        "payment:app": "yes",
        "payment:cards": "no",
        "payment:cash": "no",
        "payment:membership_card": "no",
        "payment:qr_code": "no",
        "ref": "02/Precenicco",
        "rental": "ebike"
      }
    },
    {
      "type": "node",
      "id": 11830138206,
      "lat": 45.8158231,
      "lon": 13.1256896,
      "tags": {
        "sport": "climbing"
      }
    },
    {
      "type": "node",
      "id": 11861652787,
      "lat": 46.1996962,
      "lon": 12.9593115,
      "tags": {
        "leisure": "sports_centre",
        "name": "Scuola Kayak Friuli",
        "sport": "canoe"
      }
    },
    {
      "type": "node",
      "id": 11901254531,
      "lat": 46.2711493,
      "lon": 12.5142422,
      "tags": {
        "climbing": "crag",
        "climbing:sport": "3",
        "description": "3 routes with artifical holds",
        "name": "Ciarfurle",
        "sport": "climbing"
      }
    },
    {
      "type": "node",
      "id": 11985633157,
      "lat": 45.8033928,
      "lon": 13.0785373,
      "tags": {
        "amenity": "bicycle_rental",
        "bicycle_rental": "docking_station",
        "capacity": "13",
        "check_date": "2025-10-19",
        "covered": "no",
        "fee": "yes",
        "name": "FRIbike",
        "panoramax": "22e47536-b1aa-4363-8ab6-f6efe812f3b3",
        "payment:app": "yes",
        "payment:cards": "no",
        "payment:cash": "no",
        "payment:membership_card": "no",
        "payment:qr_code": "no",
        "ref": "03/Palazzolo",
        "rental": "ebike",
        "survey:date": "2024-06-16"
      }
    },
    {
      "type": "node",
      "id": 12017287866,
      "lat": 46.093321,
      "lon": 12.799161,
      "tags": {
        "climbing:boulder:indoor": "yes",
        "climbing:sport:indoor": "yes",
        "contact:email": "info@testedipietra.it",
        "contact:facebook": "https://www.facebook.com/groups/63344066069/",
        "contact:phone": "+39 340 3355611;+39 351 7514774",
        "contact:website": "https://www.testedipietra.it/",
        "leisure": "sports_centre",
        "name": "Palestra Teste di Pietra",
        "operator": "A. S. D. Teste di Pietra",
        "operator:type": "private_non_profit",
        "sport": "climbing"
      }
    },
    {
      "type": "node",
      "id": 12020737933,
      "lat": 46.2377341,
      "lon": 12.9703745,
      "tags": {
        "name": "Falesia Settore Dai Frus",
        "sport": "climbing"
      }
    },
    {
      "type": "node",
      "id": 12020737936,
      "lat": 46.2368795,
      "lon": 12.9698756,
      "tags": {
        "name": "Falesia Settore Picco del Vento",
        "sport": "climbing"
      }
    },
    {
      "type": "node",
      "id": 12098684159,
      "lat": 46.3732407,
      "lon": 13.4582641,
      "tags": {
        "leisure": "sports_centre",
        "sport": "climbing"
      }
    },
    {
      "type": "node",
      "id": 12118869951,
      "lat": 46.599293,
      "lon": 13.0199486,
      "tags": {
        "leisure": "sports_centre",
        "sport": "climbing"
      }
    },
    {
      "type": "node",
      "id": 12142054410,
      "lat": 46.2702875,
      "lon": 12.332702,
      "tags": {
        "leisure": "sports_centre",
        "sport": "climbing"
      }
    },
    {
      "type": "node",
      "id": 12142054411,
      "lat": 46.2697969,
      "lon": 12.3357581,
      "tags": {
        "leisure": "sports_centre",
        "sport": "climbing"
      }
    },
    {
      "type": "node",
      "id": 12199108407,
      "lat": 45.6977145,
      "lon": 13.1437627,
      "tags": {
        "amenity": "bicycle_rental",
        "bicycle_rental": "docking_station",
        "capacity": "16",
        "name": "FRIbike",
        "panoramax": "2f5a3fa9-b6be-4cd8-aeb1-596df558e649",
        "payment:app": "yes",
        "payment:cards": "no",
        "payment:cash": "no",
        "payment:membership_card": "no",
        "payment:qr_code": "no",
        "ref": "01/Lignano",
        "rental": "ebike"
      }
    },
    {
      "type": "node",
      "id": 12238682251,
      "lat": 46.3942617,
      "lon": 13.2143272,
      "tags": {
        "amenity": "bicycle_rental"
      }
    },
    {
      "type": "node",
      "id": 12244537008,
      "lat": 45.9060618,
      "lon": 13.30857,
      "tags": {
        "amenity": "bicycle_rental",
        "contact:phone": "+39 389 311 7060",
        "rental": "e-bike"
      }
    },
    {
      "type": "node",
      "id": 12357835770,
      "lat": 46.1925815,
      "lon": 12.6270081,
      "tags": {
        "name": "Parete sulla Strada",
        "sport": "climbing"
      }
    },
    {
      "type": "node",
      "id": 12473779596,
      "lat": 46.4233806,
      "lon": 12.8869931,
      "tags": {
        "name": "Cuel Budin",
        "sport": "climbing"
      }
    },
    {
      "type": "node",
      "id": 12532107025,
      "lat": 46.0604042,
      "lon": 13.2294148,
      "tags": {
        "amenity": "bicycle_rental",
        "bicycle_rental": "dropoff_point"
      }
    },
    {
      "type": "node",
      "id": 12546684824,
      "lat": 46.0701462,
      "lon": 13.2284772,
      "tags": {
        "amenity": "bicycle_rental",
        "bicycle_rental": "dropoff_point"
      }
    },
    {
      "type": "node",
      "id": 12551403748,
      "lat": 46.5129871,
      "lon": 13.5481584,
      "tags": {
        "description": "via ferrata non segnalata",
        "name": "via ferrata",
        "sport": "climbing"
      }
    },
    {
      "type": "node",
      "id": 12569138913,
      "lat": 46.0646421,
      "lon": 13.2320527,
      "tags": {
        "amenity": "bicycle_rental"
      }
    },
    {
      "type": "node",
      "id": 12569138915,
      "lat": 46.060564,
      "lon": 13.2351817,
      "tags": {
        "amenity": "bicycle_rental"
      }
    },
    {
      "type": "node",
      "id": 12569138918,
      "lat": 46.0613164,
      "lon": 13.236527,
      "tags": {
        "amenity": "bicycle_rental",
        "bicycle_rental": "dropoff_point"
      }
    },
    {
      "type": "node",
      "id": 12569138927,
      "lat": 46.0596464,
      "lon": 13.2388522,
      "tags": {
        "amenity": "bicycle_rental",
        "bicycle_rental": "dropoff_point"
      }
    },
    {
      "type": "node",
      "id": 12569138929,
      "lat": 46.0556257,
      "lon": 13.2367,
      "tags": {
        "amenity": "bicycle_rental",
        "bicycle_rental": "dropoff_point"
      }
    },
    {
      "type": "node",
      "id": 12610696696,
      "lat": 46.0664396,
      "lon": 13.2388198,
      "tags": {
        "amenity": "bicycle_rental",
        "bicycle_rental": "dropoff_point"
      }
    },
    {
      "type": "node",
      "id": 12630727001,
      "lat": 46.0554555,
      "lon": 13.2380592,
      "tags": {
        "amenity": "bicycle_rental",
        "bicycle_rental": "dropoff_point"
      }
    },
    {
      "type": "node",
      "id": 12645615030,
      "lat": 46.0634315,
      "lon": 13.2290398,
      "tags": {
        "amenity": "bicycle_rental",
        "bicycle_rental": "dropoff_point"
      }
    },
    {
      "type": "node",
      "id": 12713848512,
      "lat": 46.0573299,
      "lon": 13.2359928,
      "tags": {
        "amenity": "bicycle_rental",
        "bicycle_rental": "dropoff_point"
      }
    },
    {
      "type": "node",
      "id": 12713848514,
      "lat": 46.0579555,
      "lon": 13.2400938,
      "tags": {
        "amenity": "bicycle_rental",
        "bicycle_rental": "dropoff_point"
      }
    },
    {
      "type": "node",
      "id": 12713848519,
      "lat": 46.057998,
      "lon": 13.245406,
      "tags": {
        "amenity": "bicycle_rental",
        "bicycle_rental": "dropoff_point"
      }
    },
    {
      "type": "node",
      "id": 12713848540,
      "lat": 46.0661935,
      "lon": 13.2440833,
      "tags": {
        "amenity": "bicycle_rental",
        "bicycle_rental": "dropoff_point"
      }
    },
    {
      "type": "node",
      "id": 12744673258,
      "lat": 46.0610964,
      "lon": 13.2429118,
      "tags": {
        "amenity": "bicycle_rental",
        "bicycle_rental": "dropoff_point"
      }
    },
    {
      "type": "node",
      "id": 12744694665,
      "lat": 46.0655366,
      "lon": 13.2366947,
      "tags": {
        "amenity": "bicycle_rental",
        "bicycle_rental": "docking_station"
      }
    },
    {
      "type": "node",
      "id": 12802233984,
      "lat": 46.0598054,
      "lon": 13.2420716,
      "tags": {
        "amenity": "bicycle_rental",
        "bicycle_rental": "dropoff_point"
      }
    },
    {
      "type": "node",
      "id": 12804699508,
      "lat": 46.0571564,
      "lon": 13.2443773,
      "tags": {
        "amenity": "bicycle_rental",
        "bicycle_rental": "dropoff_point"
      }
    },
    {
      "type": "node",
      "id": 12804699509,
      "lat": 46.059347,
      "lon": 13.2373473,
      "tags": {
        "amenity": "bicycle_rental",
        "bicycle_rental": "dropoff_point"
      }
    },
    {
      "type": "node",
      "id": 12804699510,
      "lat": 46.0596982,
      "lon": 13.2335212,
      "tags": {
        "amenity": "bicycle_rental",
        "bicycle_rental": "dropoff_point"
      }
    },
    {
      "type": "node",
      "id": 12825732717,
      "lat": 46.0711774,
      "lon": 13.2343928,
      "tags": {
        "amenity": "bicycle_rental",
        "bicycle_rental": "dropoff_point"
      }
    },
    {
      "type": "node",
      "id": 12826371432,
      "lat": 46.0704875,
      "lon": 13.2292899,
      "tags": {
        "amenity": "bicycle_rental"
      }
    },
    {
      "type": "node",
      "id": 12843881437,
      "lat": 45.6662674,
      "lon": 13.7721038,
      "tags": {
        "fee": "no",
        "leisure": "sports_centre",
        "opening_hours": "24/7",
        "sport": "climbing"
      }
    },
    {
      "type": "node",
      "id": 12845266125,
      "lat": 45.625375,
      "lon": 13.8036618,
      "tags": {
        "contact:facebook": "https://www.facebook.com/olympicrockasd/",
        "email": "info@olympicrock.it",
        "leisure": "sports_centre",
        "mobile": "+39 3293405342",
        "name": "Olympic Rock",
        "sport": "climbing",
        "website": "https://www.olympicrock.it/"
      }
    },
    {
      "type": "node",
      "id": 12958964040,
      "lat": 45.9567627,
      "lon": 12.6544949,
      "tags": {
        "amenity": "bicycle_rental",
        "check_date": "2026-05-01"
      }
    },
    {
      "type": "node",
      "id": 13063752150,
      "lat": 46.0647439,
      "lon": 13.2307376,
      "tags": {
        "amenity": "bicycle_rental",
        "bicycle_rental": "dropoff_point"
      }
    },
    {
      "type": "node",
      "id": 13064184702,
      "lat": 46.062756,
      "lon": 13.2470687,
      "tags": {
        "amenity": "bicycle_rental"
      }
    },
    {
      "type": "node",
      "id": 13064247057,
      "lat": 46.0648374,
      "lon": 13.237616,
      "tags": {
        "amenity": "bicycle_rental"
      }
    },
    {
      "type": "node",
      "id": 13065253007,
      "lat": 46.0673714,
      "lon": 13.2337677,
      "tags": {
        "amenity": "bicycle_rental",
        "bicycle_rental": "dropoff_point"
      }
    },
    {
      "type": "node",
      "id": 13065253008,
      "lat": 46.0705848,
      "lon": 13.2348123,
      "tags": {
        "amenity": "bicycle_rental",
        "bicycle_rental": "dropoff_point"
      }
    },
    {
      "type": "node",
      "id": 13069570915,
      "lat": 46.0614082,
      "lon": 13.2394249,
      "tags": {
        "amenity": "bicycle_rental",
        "bicycle_rental": "dropoff_point"
      }
    },
    {
      "type": "node",
      "id": 13074584107,
      "lat": 46.3399492,
      "lon": 13.1220117,
      "tags": {
        "leisure": "sports_centre",
        "name": "Falesia arrampicata Pioverno - ricordo Lorenzo Paroni",
        "sport": "climbing"
      }
    },
    {
      "type": "node",
      "id": 13109388164,
      "lat": 46.0626977,
      "lon": 13.232298,
      "tags": {
        "amenity": "bicycle_rental",
        "bicycle_rental": "dropoff_point"
      }
    },
    {
      "type": "node",
      "id": 13141038483,
      "lat": 46.0645846,
      "lon": 13.2275024,
      "tags": {
        "amenity": "bicycle_rental",
        "bicycle_rental": "dropoff_point"
      }
    },
    {
      "type": "node",
      "id": 13141059026,
      "lat": 46.0592454,
      "lon": 13.2297599,
      "tags": {
        "amenity": "bicycle_rental",
        "bicycle_rental": "dropoff_point"
      }
    },
    {
      "type": "node",
      "id": 13141649153,
      "lat": 46.0673847,
      "lon": 13.2282302,
      "tags": {
        "amenity": "bicycle_rental",
        "bicycle_rental": "dropoff_point"
      }
    },
    {
      "type": "node",
      "id": 13179276671,
      "lat": 46.0627275,
      "lon": 13.2412443,
      "tags": {
        "amenity": "bicycle_rental"
      }
    },
    {
      "type": "node",
      "id": 13230508112,
      "lat": 46.0685517,
      "lon": 13.2299533,
      "tags": {
        "amenity": "bicycle_rental",
        "bicycle_rental": "docking_station",
        "capacity": "10",
        "check_date": "2025-10-13",
        "fee": "yes",
        "name": "Deciani",
        "network": "RideMovi",
        "payment:app": "yes",
        "ref": "Deciani"
      }
    },
    {
      "type": "node",
      "id": 13241348223,
      "lat": 46.0695013,
      "lon": 13.2355375,
      "tags": {
        "amenity": "bicycle_rental"
      }
    },
    {
      "type": "node",
      "id": 13241348224,
      "lat": 46.067643,
      "lon": 13.2355623,
      "tags": {
        "amenity": "bicycle_rental"
      }
    },
    {
      "type": "node",
      "id": 13307202579,
      "lat": 46.0605496,
      "lon": 13.2472983,
      "tags": {
        "amenity": "bicycle_rental"
      }
    },
    {
      "type": "node",
      "id": 13338699260,
      "lat": 45.9303079,
      "lon": 12.9590325,
      "tags": {
        "leisure": "horse_riding",
        "name": "ASD Circolo ippico La Quercia"
      }
    },
    {
      "type": "node",
      "id": 13360347398,
      "lat": 46.0653059,
      "lon": 13.2425968,
      "tags": {
        "amenity": "bicycle_rental"
      }
    },
    {
      "type": "node",
      "id": 13374974981,
      "lat": 46.0580473,
      "lon": 13.230053,
      "tags": {
        "amenity": "bicycle_rental",
        "bicycle_rental": "dropoff_point"
      }
    },
    {
      "type": "node",
      "id": 13376874633,
      "lat": 46.0549708,
      "lon": 13.2302109,
      "tags": {
        "amenity": "bicycle_rental",
        "bicycle_rental": "dropoff_point"
      }
    },
    {
      "type": "node",
      "id": 13415700790,
      "lat": 46.0580447,
      "lon": 13.2377818,
      "tags": {
        "amenity": "bicycle_rental",
        "bicycle_rental": "dropoff_point"
      }
    },
    {
      "type": "node",
      "id": 13420942069,
      "lat": 46.069631,
      "lon": 13.2342758,
      "tags": {
        "amenity": "bicycle_rental",
        "bicycle_rental": "dropoff_point"
      }
    },
    {
      "type": "node",
      "id": 13740329098,
      "lat": 45.6211661,
      "lon": 13.8672172,
      "tags": {
        "leisure": "sports_centre",
        "name": "Dodici Vie",
        "sport": "climbing"
      }
    },
    {
      "type": "node",
      "id": 13798193123,
      "lat": 46.400212,
      "lon": 12.6703888,
      "tags": {
        "climbing": "crag",
        "climbing:grade:french:max": "6a",
        "climbing:grade:french:min": "3c",
        "climbing:sport": "13",
        "name": "Radio 2",
        "sport": "climbing",
        "website": "https://www.thecrag.com/it/arrampicata/italy/northern-italy/udine-area/area/6667568139"
      }
    },
    {
      "type": "node",
      "id": 13798193124,
      "lat": 46.402154,
      "lon": 12.6717445,
      "tags": {
        "climbing": "crag",
        "climbing:grade:french:max": "7b+",
        "climbing:grade:french:min": "5a",
        "climbing:sport": "21",
        "name": "Al Zambol",
        "sport": "climbing",
        "website": "https://www.thecrag.com/it/arrampicata/italy/northern-italy/udine-area/area/6667651974"
      }
    },
    {
      "type": "node",
      "id": 13900775947,
      "lat": 46.3140954,
      "lon": 12.4438268,
      "tags": {
        "climbing": "crag",
        "climbing:grade:french:max": "5b",
        "climbing:grade:french:min": "4a",
        "climbing:sport": "11",
        "name": "Ponte Compol - Eclataego",
        "sport": "climbing",
        "website": "https://www.thecrag.com/en/climbing/italy/northern-italy/udine-area/area/8323633206"
      }
    },
    {
      "type": "node",
      "id": 13900775948,
      "lat": 46.314624,
      "lon": 12.4397631,
      "tags": {
        "climbing": "crag",
        "climbing:grade:french:max": "7a+",
        "climbing:grade:french:min": "3a",
        "climbing:sport": "21",
        "name": "Ponte Compol - Faraway",
        "sport": "climbing",
        "website": "https://www.thecrag.com/en/climbing/italy/northern-italy/udine-area/area/7940988954"
      }
    },
    {
      "type": "way",
      "id": 36017111,
      "center": {
        "lat": 46.4012231,
        "lon": 13.0062588
      },
      "nodes": [
        420967848,
        7976648123,
        420967849,
        420967850,
        420967851,
        420967852,
        7976648124,
        420967853,
        7976648132,
        420967854,
        420967855,
        7976645190,
        420967856,
        7976583846,
        420967857,
        420967858,
        420967859,
        420967848
      ],
      "tags": {
        "building": "yes",
        "covered": "yes",
        "height": "4 m",
        "it:fvg:ctrn:code": "4AED",
        "it:fvg:ctrn:revision": "1AM",
        "leisure": "swimming_pool",
        "name": "Piscina Comunale",
        "opening_hours": "Mo-Fr 08:30-21:00; Sa 10:00-18:00",
        "phone": "+39 0433 43285",
        "wheelchair": "yes"
      }
    },
    {
      "type": "way",
      "id": 36019565,
      "center": {
        "lat": 46.5066324,
        "lon": 13.5705653
      },
      "nodes": [
        420988444,
        420988446,
        420988447,
        420988449,
        420988444
      ],
      "tags": {
        "height": "3 m",
        "it:fvg:ctrn:code": "4AED",
        "it:fvg:ctrn:revision": "000",
        "leisure": "swimming_pool"
      }
    },
    {
      "type": "way",
      "id": 36201558,
      "center": {
        "lat": 45.9792668,
        "lon": 12.5651171
      },
      "nodes": [
        422600586,
        422600587,
        422600589,
        422600591,
        422600608,
        422600610,
        422600611,
        422600613,
        422600615,
        422600617,
        422600619,
        422600620,
        422600622,
        422600624,
        422600626,
        422600627,
        422600629,
        422600631,
        422600633,
        422600635,
        422600636,
        422600638,
        422600640,
        422600642,
        422600644,
        422600646,
        422600648,
        422600649,
        422600651,
        422600653,
        422600655,
        422600656,
        422600658,
        422600660,
        422600662,
        422600664,
        422600666,
        422600668,
        422600669,
        422600671,
        422600673,
        422600675,
        422600677,
        422600679,
        422600680,
        422600682,
        422600586
      ],
      "tags": {
        "addr:city": "Fontanafredda",
        "addr:country": "IT",
        "addr:housenumber": "1",
        "addr:postcode": "33070",
        "addr:street": "Viale dello Sport",
        "building": "yes",
        "height": "6 m",
        "it:fvg:ctrn:code": "4AED",
        "it:fvg:ctrn:revision": "1A0",
        "leisure": "swimming_pool",
        "name": "Piscina ARCA Fontanafredda",
        "sport": "swimming"
      }
    },
    {
      "type": "way",
      "id": 36205640,
      "center": {
        "lat": 45.9536411,
        "lon": 12.5051873
      },
      "nodes": [
        422646731,
        422646732,
        422646733,
        422646734,
        422646735,
        422646736,
        422646731
      ],
      "tags": {
        "building": "yes",
        "club": "sport",
        "height": "3 m",
        "it:fvg:ctrn:code": "4AED",
        "it:fvg:ctrn:revision": "1A0",
        "sport": "canoe"
      }
    },
    {
      "type": "way",
      "id": 36277653,
      "center": {
        "lat": 45.9192032,
        "lon": 12.8438453
      },
      "nodes": [
        423272655,
        423272656,
        423272658,
        423272661,
        423272666,
        423272667,
        423272655
      ],
      "tags": {
        "building": "yes",
        "height": "7 m",
        "it:fvg:ctrn:code": "4AED",
        "it:fvg:ctrn:revision": "1AN",
        "leisure": "swimming_pool"
      }
    },
    {
      "type": "way",
      "id": 36277656,
      "center": {
        "lat": 45.9194936,
        "lon": 12.8437919
      },
      "nodes": [
        423272658,
        423272678,
        423272674,
        423272681,
        423272683,
        423272684,
        423272686,
        423272687,
        423272689,
        423272691,
        423272692,
        423272694,
        423272697,
        423272698,
        423272699,
        423272700,
        423272701,
        423272704,
        423272705,
        423272707,
        423272661,
        423272658
      ],
      "tags": {
        "building": "yes",
        "height": "9 m",
        "it:fvg:ctrn:code": "4AED",
        "it:fvg:ctrn:revision": "1AM",
        "leisure": "swimming_pool",
        "name": "Piscina Comunale",
        "operator": "Polisportiva San Vito",
        "website": "https://www.nuotosanvito.it/",
        "wheelchair": "yes"
      }
    },
    {
      "type": "way",
      "id": 36321199,
      "center": {
        "lat": 45.8079049,
        "lon": 13.2275376
      },
      "nodes": [
        423682481,
        423682482,
        423682483,
        423682484,
        423682481
      ],
      "tags": {
        "addr:city": "San Giorgio di Nogaro",
        "addr:postcode": "33058",
        "addr:street": "Via Famula",
        "building": "yes",
        "height": "5 m",
        "it:fvg:ctrn:code": "4AED",
        "it:fvg:ctrn:revision": "1A0",
        "sport": "canoe"
      }
    },
    {
      "type": "way",
      "id": 36324574,
      "center": {
        "lat": 45.9854557,
        "lon": 13.390887
      },
      "nodes": [
        423714117,
        424987616,
        423714122,
        424987602,
        423714126,
        423714127,
        423714128,
        423714129,
        423714130,
        423714131,
        423714117
      ],
      "tags": {
        "building": "yes",
        "height": "8 m",
        "it:fvg:ctrn:code": "4AED",
        "it:fvg:ctrn:revision": "1AM",
        "leisure": "swimming_pool"
      }
    },
    {
      "type": "way",
      "id": 36430062,
      "center": {
        "lat": 45.919302,
        "lon": 12.8444577
      },
      "nodes": [
        424774646,
        424774647,
        2327352380,
        2327352379,
        2327352381,
        2327352382,
        424774646
      ],
      "tags": {
        "addr:city": "San Vito al Tagliamento",
        "addr:housenumber": "1",
        "addr:postcode": "33078",
        "addr:street": "Via dello Sport",
        "building": "yes",
        "climbing:boulder:indoor": "yes",
        "climbing:boulder:outdoor": "yes",
        "climbing:sport:outdoor": "yes",
        "contact:website": "https://www.caisanvito.it/palestra-home",
        "height": "14 m",
        "it:fvg:ctrn:code": "4AIN",
        "it:fvg:ctrn:revision": "1AN",
        "leisure": "sports_centre",
        "name": "Palestra d'arrampicata",
        "operator": "A.S.Sassinati, CAI di San Vito",
        "sport": "climbing"
      }
    },
    {
      "type": "way",
      "id": 36485048,
      "center": {
        "lat": 45.8640209,
        "lon": 13.3564212
      },
      "nodes": [
        425223323,
        425223324,
        425223325,
        425223326,
        425223323
      ],
      "tags": {
        "access": "private",
        "leisure": "swimming_pool"
      }
    },
    {
      "type": "way",
      "id": 36658386,
      "center": {
        "lat": 45.6400682,
        "lon": 13.7618067
      },
      "nodes": [
        426274527,
        426274528,
        426274529,
        426274530,
        426274527
      ],
      "tags": {
        "it:fvg:ctrn:code": "4AEC",
        "it:fvg:ctrn:revision": "1AN",
        "leisure": "swimming_pool"
      }
    },
    {
      "type": "way",
      "id": 36659463,
      "center": {
        "lat": 46.1096784,
        "lon": 13.2137664
      },
      "nodes": [
        426283642,
        426283643,
        426283644,
        426283645,
        426283646,
        426283647,
        426283648,
        426283649,
        426283650,
        426283651,
        426283652,
        426283653,
        426283654,
        426283655,
        426283656,
        426283657,
        426283658,
        426283659,
        426283660,
        426283661,
        426283662,
        426283663,
        426283664,
        426283665,
        426283666,
        426283667,
        426283668,
        426283669,
        426283670,
        426283671,
        426283672,
        426283673,
        426283674,
        426283675,
        426283676,
        426283677,
        426283678,
        426283679,
        426283680,
        426283681,
        6098919868,
        426283682,
        426283642
      ],
      "tags": {
        "building": "yes",
        "height": "12m",
        "it:fvg:ctrn:code": "4AEC",
        "it:fvg:ctrn:revision": "1AN",
        "leisure": "swimming_pool",
        "name": "Piscina comunale Feletto Umberto"
      }
    },
    {
      "type": "way",
      "id": 36659753,
      "center": {
        "lat": 46.2827542,
        "lon": 13.1270045
      },
      "nodes": [
        426285893,
        426285930,
        426285931,
        915658687,
        915658595,
        426285932,
        426285933,
        426285934,
        426285936,
        426285937,
        426285938,
        426285939,
        426285940,
        426285941,
        426285942,
        426285943,
        426285944,
        426285945,
        426285946,
        426285947,
        426285948,
        426285949,
        426285951,
        426285893
      ],
      "tags": {
        "addr:street": "Via Velden",
        "building": "yes",
        "it:fvg:ctrn:code": "4AEC",
        "it:fvg:ctrn:revision": "1AN",
        "leisure": "swimming_pool",
        "name": "Atlantis",
        "sport": "swimming"
      }
    },
    {
      "type": "way",
      "id": 36683182,
      "center": {
        "lat": 46.1059521,
        "lon": 13.1841125
      },
      "nodes": [
        426448367,
        426448368,
        426448369,
        426448370,
        426448367
      ],
      "tags": {
        "access": "private",
        "height": "2 m",
        "it:fvg:ctrn:code": "4ASE",
        "it:fvg:ctrn:revision": "1AN",
        "leisure": "swimming_pool",
        "location": "outdoor"
      }
    },
    {
      "type": "way",
      "id": 36697164,
      "center": {
        "lat": 45.7965715,
        "lon": 13.5120993
      },
      "nodes": [
        426588234,
        426588235,
        426588236,
        426588237,
        426588238,
        426588239,
        426588240,
        426588241,
        426588242,
        426588244,
        426588245,
        426588246,
        426588247,
        426588248,
        426588249,
        426588250,
        426588234
      ],
      "tags": {
        "addr:country": "IT",
        "building": "yes",
        "covered": "yes",
        "height": "6 m",
        "it:fvg:ctrn:code": "4AED",
        "it:fvg:ctrn:revision": "1AM",
        "leisure": "swimming_pool",
        "sport": "swimming"
      }
    },
    {
      "type": "way",
      "id": 59838177,
      "center": {
        "lat": 46.0719806,
        "lon": 13.2287028
      },
      "nodes": [
        742646124,
        742646125,
        742646123,
        742646121,
        742646124
      ],
      "tags": {
        "addr:housenumber": "4",
        "addr:postcode": "33100",
        "addr:street": "Via Ampezzo",
        "contact:phone": "+39 0432 269 67",
        "email": "sport@comune.udine.it",
        "leisure": "swimming_pool",
        "name": "Palamostre",
        "opening_hours": "Mo-Su 10:00-19:00",
        "website": "http://www.comune.udine.gov.it/aree-tematiche/sport-tempo-libero/impianti-sportivi"
      }
    },
    {
      "type": "way",
      "id": 85210075,
      "center": {
        "lat": 45.8359173,
        "lon": 13.5613416
      },
      "nodes": [
        988166112,
        988166088,
        988166104,
        2322207565,
        988166099,
        988166118,
        988166110,
        988166102,
        988166097,
        988166113,
        2322207563,
        2322207564,
        2322207566,
        988166107,
        988166123,
        988166119,
        988166129,
        988166126,
        988166115,
        988166108,
        988166124,
        988166120,
        988166131,
        988166127,
        9471344987,
        9132752240,
        7577858149,
        1247020828,
        1248316102,
        1248315994,
        1248315637,
        1248315751,
        1248315536,
        1247020817,
        1248315858,
        1248315936,
        1248315956,
        1248315743,
        1247020862,
        1248316285,
        1248315782,
        1247020842,
        1248316189,
        1248316045,
        1248316073,
        1248316385,
        2322207573,
        2322207572,
        2322207574,
        2322207569,
        2322207568,
        988166091,
        988166112
      ],
      "tags": {
        "amenity": "sport",
        "leisure": "sports_centre",
        "name": "Castel Cadorna / Casa Cadorna",
        "sport": "climbing"
      }
    },
    {
      "type": "way",
      "id": 107543920,
      "center": {
        "lat": 45.6986348,
        "lon": 13.1483503
      },
      "nodes": [
        1235851047,
        1235851049,
        1235851050,
        1235851048,
        1235851047
      ],
      "tags": {
        "access": "private",
        "leisure": "swimming_pool",
        "lit": "yes",
        "location": "outdoor",
        "swimming_pool": "outdoor"
      }
    },
    {
      "type": "way",
      "id": 108163793,
      "center": {
        "lat": 45.9972112,
        "lon": 12.5575001
      },
      "nodes": [
        1241372090,
        1241372111,
        1241372084,
        11860708789,
        1241372059,
        1241372094,
        1241372077,
        1241372112,
        1241372089,
        1241372067,
        1241372090
      ],
      "tags": {
        "leisure": "horse_riding",
        "name": "Circolo Ippico Gallo Rosso",
        "sport": "equestrian"
      }
    },
    {
      "type": "way",
      "id": 134753870,
      "center": {
        "lat": 46.21265,
        "lon": 13.1145173
      },
      "nodes": [
        1481080587,
        1481080606,
        1481080605,
        1481080593,
        1481080587
      ],
      "tags": {
        "access": "customers",
        "addr:city": "Buja",
        "addr:postcode": "33030",
        "addr:street": "Via Pidicuel",
        "leisure": "horse_riding",
        "name": "Circolo Ippico Bujese",
        "phone": "+39 02 206 8160"
      }
    },
    {
      "type": "way",
      "id": 155792197,
      "center": {
        "lat": 45.6700826,
        "lon": 13.7612271
      },
      "nodes": [
        1681546922,
        1681546915,
        1681546918,
        1681546925,
        1681546922
      ],
      "tags": {
        "access": "private",
        "leisure": "swimming_pool"
      }
    },
    {
      "type": "way",
      "id": 156342634,
      "center": {
        "lat": 45.6874032,
        "lon": 13.1307813
      },
      "nodes": [
        1686015941,
        1686015940,
        1686015939,
        1686015942,
        1686015948,
        1686015943,
        1686015945,
        1686015947,
        1686015946,
        1686015944,
        1686015941
      ],
      "tags": {
        "access": "private",
        "leisure": "swimming_pool"
      }
    },
    {
      "type": "way",
      "id": 161176930,
      "center": {
        "lat": 45.7548893,
        "lon": 13.7090144
      },
      "nodes": [
        1731735872,
        1731735839,
        1731735884,
        1731735888,
        1731735872
      ],
      "tags": {
        "access": "private",
        "leisure": "swimming_pool"
      }
    },
    {
      "type": "way",
      "id": 166163795,
      "center": {
        "lat": 45.6939851,
        "lon": 13.4536939
      },
      "nodes": [
        1776443912,
        1776443876,
        1776443898,
        1776443872,
        1776443912
      ],
      "tags": {
        "access": "private",
        "leisure": "swimming_pool"
      }
    },
    {
      "type": "way",
      "id": 176718277,
      "center": {
        "lat": 46.2770188,
        "lon": 13.1448694
      },
      "nodes": [
        1871951396,
        1871951389,
        1871951380,
        1871951367,
        1871951348,
        1871951349,
        1871951360,
        1871951365,
        1871951366,
        1871951362,
        1871951371,
        1871951369,
        1871951372,
        1871951379,
        1871951394,
        1871951402,
        1871951404,
        1871951401,
        1871951397,
        1871951393,
        1871951388,
        1871951383,
        1871951382,
        1871951381,
        1871951378,
        1871951376,
        1871951374,
        1871951368,
        1871951358,
        1871951341,
        1871951337,
        1871951335,
        1871951329,
        1871951325,
        1871951318,
        1871951315,
        1871951322,
        1871951327,
        1871951328,
        1871951326,
        1871951323,
        1871951321,
        1871951314,
        1871951312,
        1871951310,
        1871951305,
        1871951303,
        1871951292,
        1871951286,
        1871951272,
        1871951270,
        1871951259,
        1871951254,
        1871951252,
        1871951251,
        1871951250,
        1871951249,
        1871951239,
        1871951242,
        1871951244,
        1871951236,
        1871951229,
        1871951230,
        1871951228,
        1871951235,
        1871951238,
        1871951241,
        1871951246,
        1871951245,
        1871951237,
        1871951234,
        1871951223,
        1871951221,
        1871951219,
        1871951216,
        1871951203,
        1871951190,
        1871951188,
        1871951194,
        1871951193,
        1871951170,
        1871951160,
        1871951150,
        1871951147,
        1871951151,
        1871951157,
        1871951155,
        1871951158,
        1871951165,
        1871951171,
        1871951177,
        1871951185,
        1871951191,
        1871951189,
        1871951184,
        1871951166,
        1871951162,
        1871951161,
        1871951156,
        1871951149,
        1871951146,
        1871951144,
        1871951148,
        1871951152,
        1871951178,
        1871951172,
        1871951173,
        1871951183,
        1871951179,
        1871951176,
        1871951187,
        1871951196,
        1871951208,
        1871951209,
        1871951214,
        1871951215,
        1871951217,
        1871951213,
        1871951212,
        1871951206,
        1871951204,
        1871951186,
        1871951169,
        1871951181,
        1871951182,
        1871951175,
        1871951159,
        1871951142,
        1871951141,
        1871951139,
        1871951130,
        1871951108,
        1871951083,
        1871951074,
        1871951076,
        1871951078,
        1871951087,
        1871951088,
        1871951109,
        1871951116,
        1871951086,
        1871951084,
        1871951092,
        1871951097,
        1871951090,
        1871951077,
        1871951075,
        1871951081,
        1871951080,
        1871951095,
        1871951098,
        1871951113,
        1871951118,
        1871951103,
        1871951093,
        1871951089,
        1871951111,
        1871951102,
        1871951117,
        1871951122,
        1871951127,
        1871951135,
        1871951128,
        1871951114,
        1871951100,
        1871951112,
        1871951091,
        1871951099,
        1871951115,
        1871951124,
        1871951125,
        1871951110,
        1871951094,
        1871951079,
        1871951070,
        1871951066,
        1871951063,
        1871951069,
        1871951061,
        1871951068,
        1871951065,
        1871951064,
        1871951059,
        1871951054,
        1871951052,
        1871951050,
        1871951051,
        1871951055,
        1871951053,
        1871951057,
        1871951056,
        1871951058,
        1871951067,
        1871951073,
        1871951085,
        1871951120,
        1871951137,
        1871951140,
        1871951143,
        1871951153,
        1871951164,
        1871951167,
        1871951168,
        1871951174,
        1871951195,
        1871951210,
        1871951218,
        1871951220,
        1871951232,
        1871951240,
        1871951247,
        1871951253,
        1871951256,
        1871951266,
        1800855400
      ],
      "tags": {
        "climbing": "route",
        "climbing:grade:uiaa": "3+",
        "name": "Spigolo del Glemine",
        "sport": "climbing"
      }
    },
    {
      "type": "way",
      "id": 179136537,
      "center": {
        "lat": 45.98306,
        "lon": 12.6036434
      },
      "nodes": [
        1894738973,
        1894738972,
        1894738970,
        1894738971,
        1894738973
      ],
      "tags": {
        "leisure": "swimming_pool",
        "sport": "swimming"
      }
    },
    {
      "type": "way",
      "id": 192924617,
      "center": {
        "lat": 46.0960759,
        "lon": 13.4206734
      },
      "nodes": [
        2034595697,
        2034595705,
        2034595707,
        9721937036,
        2034595702,
        2034595697
      ],
      "tags": {
        "leisure": "swimming_pool",
        "length": "25"
      }
    },
    {
      "type": "way",
      "id": 197842126,
      "center": {
        "lat": 45.8684662,
        "lon": 13.3650577
      },
      "nodes": [
        2080391232,
        2080391193,
        2080391209,
        2080391234,
        2080391232
      ],
      "tags": {
        "access": "private",
        "leisure": "swimming_pool",
        "sport": "swimming"
      }
    },
    {
      "type": "way",
      "id": 199843723,
      "center": {
        "lat": 46.2284522,
        "lon": 13.1761259
      },
      "nodes": [
        2098453233,
        2098453240,
        2098453241,
        2098453243,
        2098453246,
        2098453248,
        2098453247,
        2098453245,
        2098453242,
        2098453244,
        2098453236,
        2098453235,
        2098453232,
        2098453230,
        2098453228,
        2098453229,
        2098453231,
        2098453234,
        2098453233
      ],
      "tags": {
        "leisure": "swimming_pool",
        "sport": "swimming"
      }
    },
    {
      "type": "way",
      "id": 203477919,
      "center": {
        "lat": 45.7959875,
        "lon": 13.5124463
      },
      "nodes": [
        2134937089,
        2134937082,
        2134937093,
        2530769346,
        2134937086,
        2134937092,
        2134937080,
        2134937090,
        2134937089
      ],
      "tags": {
        "covered": "no",
        "leisure": "swimming_pool",
        "sport": "swimming"
      }
    },
    {
      "type": "way",
      "id": 203477921,
      "center": {
        "lat": 45.7961872,
        "lon": 13.5127034
      },
      "nodes": [
        2134937097,
        2134937096,
        2134937078,
        2134937091,
        2134937097
      ],
      "tags": {
        "covered": "no",
        "leisure": "swimming_pool",
        "sport": "swimming"
      }
    },
    {
      "type": "way",
      "id": 204159593,
      "center": {
        "lat": 45.7942622,
        "lon": 13.4149011
      },
      "nodes": [
        2141737800,
        2141737777,
        2141737783,
        2141737773,
        2141737800
      ],
      "tags": {
        "leisure": "swimming_pool",
        "sport": "swimming"
      }
    },
    {
      "type": "way",
      "id": 204533817,
      "center": {
        "lat": 46.1991809,
        "lon": 13.1169439
      },
      "nodes": [
        2145313965,
        2145313962,
        2145313957,
        2145313958,
        2145313963,
        2145313966,
        2145313967,
        2145313968,
        2145313969,
        2145313974,
        2145313970,
        2145313964,
        2145313965
      ],
      "tags": {
        "leisure": "swimming_pool",
        "name": "Spazio Sport Lido",
        "opening_hours": "Mo-Su 10:00-19:30",
        "sport": "swimming"
      }
    },
    {
      "type": "way",
      "id": 206112951,
      "center": {
        "lat": 45.9570407,
        "lon": 12.9800099
      },
      "nodes": [
        2161150767,
        2161150765,
        10756201608,
        2161150766,
        2161150768,
        2161150769,
        2161150767
      ],
      "tags": {
        "building": "public",
        "leisure": "sports_centre",
        "name": "Palestra arrampicata sportiva CAI Codroipo",
        "sport": "climbing"
      }
    },
    {
      "type": "way",
      "id": 210389452,
      "center": {
        "lat": 46.580937,
        "lon": 12.7579063
      },
      "nodes": [
        420198841,
        420198876,
        420198874,
        420198870,
        420198868,
        420198864,
        420198861,
        420198858,
        420198856,
        420198853,
        420198849,
        420198843,
        420198841
      ],
      "tags": {
        "building": "yes",
        "height": "25 m",
        "it:fvg:ctrn:code": "4AED",
        "it:fvg:ctrn:revision": "000",
        "leisure": "swimming_pool",
        "sport": "swimming"
      }
    },
    {
      "type": "way",
      "id": 213560004,
      "center": {
        "lat": 45.8195113,
        "lon": 13.3825707
      },
      "nodes": [
        2232345711,
        2232345646,
        2232345729,
        2232345634,
        2232345711
      ],
      "tags": {
        "leisure": "swimming_pool",
        "sport": "swimming"
      }
    },
    {
      "type": "way",
      "id": 215308821,
      "center": {
        "lat": 46.2628714,
        "lon": 13.1167183
      },
      "nodes": [
        2247141611,
        2247141610,
        2247141622,
        2247141623,
        2247141616,
        2247141614,
        2247141612,
        2247141609,
        2247141607,
        2247141606,
        2247141608,
        2247141611
      ],
      "tags": {
        "leisure": "swimming_pool",
        "sport": "swimming"
      }
    },
    {
      "type": "way",
      "id": 218576442,
      "center": {
        "lat": 46.2564468,
        "lon": 13.3693075
      },
      "nodes": [
        2278135722,
        2278135765,
        2278135762,
        2278135758,
        2278135743,
        2278135690,
        2278135715,
        2278135722
      ],
      "tags": {
        "leisure": "horse_riding",
        "sport": "horse_racing"
      }
    },
    {
      "type": "way",
      "id": 219905496,
      "center": {
        "lat": 46.067516,
        "lon": 13.3676151
      },
      "nodes": [
        2290338760,
        2290338770,
        2290338761,
        2290338750,
        2290338760
      ],
      "tags": {
        "access": "private",
        "leisure": "swimming_pool"
      }
    },
    {
      "type": "way",
      "id": 220056802,
      "center": {
        "lat": 45.7686348,
        "lon": 13.4027205
      },
      "nodes": [
        2291746489,
        2291746455,
        2291746490,
        2291746464,
        2291746489
      ],
      "tags": {
        "leisure": "swimming_pool",
        "sport": "swimming"
      }
    },
    {
      "type": "way",
      "id": 220056803,
      "center": {
        "lat": 45.76814,
        "lon": 13.4033463
      },
      "nodes": [
        2291746483,
        2291746451,
        2291746462,
        2291746476,
        2291746483
      ],
      "tags": {
        "leisure": "swimming_pool",
        "sport": "swimming"
      }
    },
    {
      "type": "way",
      "id": 221188089,
      "center": {
        "lat": 45.6943857,
        "lon": 13.1516705
      },
      "nodes": [
        2302435066,
        2302435070,
        2302435078,
        2302435083,
        2302435087,
        2302435096,
        2302435124,
        2302435133,
        2302435131,
        2302435129,
        2302435135,
        2302435139,
        2302435141,
        2302435137,
        2302435127,
        2302435104,
        2302435085,
        2302435081,
        2302435072,
        2302435071,
        2302435069,
        2302435068,
        2302435067,
        2302435064,
        2302435057,
        2302435055,
        2302435066
      ],
      "tags": {
        "access": "customers",
        "leisure": "swimming_pool"
      }
    },
    {
      "type": "way",
      "id": 221188091,
      "center": {
        "lat": 45.6946266,
        "lon": 13.1517609
      },
      "nodes": [
        2302435149,
        2302435147,
        2302435143,
        2302435145,
        2302435149
      ],
      "tags": {
        "access": "private",
        "leisure": "swimming_pool"
      }
    },
    {
      "type": "way",
      "id": 221188098,
      "center": {
        "lat": 45.6955076,
        "lon": 13.1522135
      },
      "nodes": [
        2302435155,
        2302435157,
        2302435159,
        2302435161,
        2302435153,
        2302435151,
        2302435155
      ],
      "tags": {
        "access": "private",
        "leisure": "swimming_pool"
      }
    },
    {
      "type": "way",
      "id": 224645169,
      "center": {
        "lat": 46.0132417,
        "lon": 13.3352771
      },
      "nodes": [
        2334446604,
        2334446595,
        2334446590,
        2334446593,
        2334446596,
        2334446602,
        2334446604
      ],
      "tags": {
        "access": "private",
        "leisure": "swimming_pool"
      }
    },
    {
      "type": "way",
      "id": 224950416,
      "center": {
        "lat": 46.3488214,
        "lon": 13.0645933
      },
      "nodes": [
        2337910099,
        2337910120,
        2337910116,
        2337910124,
        2337910103,
        2337910109,
        5961589710,
        2337910123,
        2337910126,
        2337910102,
        2337910100,
        2337910104,
        2337910122,
        2337910093,
        2337910121,
        2337910101
      ],
      "tags": {
        "name": "Palestra di roccia",
        "natural": "cliff",
        "sport": "climbing"
      }
    },
    {
      "type": "way",
      "id": 225004614,
      "center": {
        "lat": 45.9096798,
        "lon": 12.8543781
      },
      "nodes": [
        2338349889,
        2338349884,
        2338349880,
        2338349879,
        2338349882,
        2338349887,
        2338349891,
        2338349895,
        2338349900,
        2338349905,
        2338349907,
        2338349912,
        2338349915,
        2338349914,
        2338349910,
        2338349908,
        2338349903,
        2338349897,
        2338349893,
        2338349889
      ],
      "tags": {
        "access": "private",
        "building": "yes",
        "leisure": "swimming_pool"
      }
    },
    {
      "type": "way",
      "id": 225233477,
      "center": {
        "lat": 45.9139339,
        "lon": 12.82852
      },
      "nodes": [
        2340424932,
        2340424929,
        2340424930,
        2340424934,
        2340424932
      ],
      "tags": {
        "leisure": "swimming_pool"
      }
    },
    {
      "type": "way",
      "id": 228549613,
      "center": {
        "lat": 45.9176471,
        "lon": 12.8479537
      },
      "nodes": [
        2372212412,
        2372212410,
        2372212403,
        2372212400,
        2372212398,
        2372212402,
        2372212399,
        2372212401,
        2372212404,
        2372212405,
        2372212406,
        2372212407,
        2372212408,
        2372212409,
        2372212411,
        2372212412
      ],
      "tags": {
        "leisure": "swimming_pool"
      }
    },
    {
      "type": "way",
      "id": 229681549,
      "center": {
        "lat": 46.1128018,
        "lon": 12.8863157
      },
      "nodes": [
        2382478356,
        2382478357,
        2382478353,
        2382478354,
        2382478356
      ],
      "tags": {
        "covered": "no",
        "leisure": "swimming_pool",
        "location": "outdoor",
        "sport": "swimming"
      }
    },
    {
      "type": "way",
      "id": 229681551,
      "center": {
        "lat": 46.1128494,
        "lon": 12.8859383
      },
      "nodes": [
        2382478360,
        2382478363,
        2382478361,
        2382478355,
        2382478360
      ],
      "tags": {
        "covered": "no",
        "leisure": "swimming_pool",
        "location": "outdoor",
        "sport": "swimming"
      }
    },
    {
      "type": "way",
      "id": 232869642,
      "center": {
        "lat": 45.6889955,
        "lon": 13.1283269
      },
      "nodes": [
        2411809577,
        2411809574,
        2411809571,
        2411809572,
        2411809577
      ],
      "tags": {
        "leisure": "swimming_pool"
      }
    },
    {
      "type": "way",
      "id": 232979399,
      "center": {
        "lat": 45.6929332,
        "lon": 13.150077
      },
      "nodes": [
        2413019454,
        2413019452,
        2413019451,
        2413019453,
        2413019454
      ],
      "tags": {
        "access": "private",
        "leisure": "swimming_pool"
      }
    },
    {
      "type": "way",
      "id": 239493209,
      "center": {
        "lat": 45.9002432,
        "lon": 13.4156015
      },
      "nodes": [
        2472706925,
        2472706931,
        2472706933,
        2472706929,
        2472706925
      ],
      "tags": {
        "leisure": "swimming_pool"
      }
    },
    {
      "type": "way",
      "id": 239493213,
      "center": {
        "lat": 45.9005626,
        "lon": 13.414858
      },
      "nodes": [
        2472706975,
        2472706957,
        2472706953,
        2472706971,
        2472706975
      ],
      "tags": {
        "leisure": "swimming_pool"
      }
    },
    {
      "type": "way",
      "id": 239493214,
      "center": {
        "lat": 45.8985383,
        "lon": 13.4198342
      },
      "nodes": [
        2472706833,
        2472706842,
        2472706849,
        2472706835,
        2472706833
      ],
      "tags": {
        "leisure": "swimming_pool"
      }
    },
    {
      "type": "way",
      "id": 243624842,
      "center": {
        "lat": 45.744429,
        "lon": 13.6655632
      },
      "nodes": [
        2510075750,
        2510075758,
        2510075751,
        2510075754,
        2510075759,
        2510075757,
        1353541906,
        2510075740,
        6843964761,
        2510075748,
        2510075746,
        2510075749,
        6843964762,
        6843964763,
        243813775,
        2510075752,
        2510075756,
        8245990365,
        8245990366,
        8245990367,
        8245990368,
        8245990369
      ],
      "tags": {
        "name": "Costiera",
        "natural": "cliff",
        "sport": "climbing"
      }
    },
    {
      "type": "way",
      "id": 244765205,
      "center": {
        "lat": 46.1568479,
        "lon": 12.7033472
      },
      "nodes": [
        2520383848,
        2520383833,
        2520383834,
        2520383840,
        2520383841,
        2520383837,
        2520383838,
        2520383831,
        2520383832,
        2520383856,
        2520383855,
        2520383854,
        2520383853,
        2520383852,
        2520383850,
        2520383849,
        2520383848
      ],
      "tags": {
        "building": "sports_centre",
        "leisure": "swimming_pool",
        "name": "Maniago Nuoto",
        "sport": "swimming"
      }
    },
    {
      "type": "way",
      "id": 245359759,
      "center": {
        "lat": 45.6898878,
        "lon": 13.0740066
      },
      "nodes": [
        2525701307,
        2525701304,
        2525701298,
        2525701302,
        2525701303,
        2525701299,
        2525701295,
        2525701294,
        2525701292,
        2525701291,
        2525701285,
        2525701282,
        2525701275,
        2525701278,
        2525701280,
        2525701272,
        2525701271,
        2525701273,
        2525701276,
        2525701279,
        2525701277,
        2525701274,
        2525701270,
        2525701268,
        2525701267,
        2525701264,
        2525701262,
        2525701259,
        2525701255,
        2525701253,
        2525701254,
        2525701256,
        2525701257,
        2525701258,
        2525701263,
        2525701266,
        2525701269,
        2525701281,
        2525701283,
        2525701284,
        2525701286,
        2525701288,
        2525701289,
        2525701287,
        2525701290,
        2525701293,
        2525701297,
        2525701296,
        2525701300,
        2525701301,
        2525701305,
        2525701306,
        2525701308,
        2525701310,
        2525701312,
        2525701314,
        2525701313,
        2525701311,
        2525701309,
        2525701307
      ],
      "tags": {
        "access": "private",
        "leisure": "swimming_pool"
      }
    },
    {
      "type": "way",
      "id": 245360725,
      "center": {
        "lat": 45.6947236,
        "lon": 13.0746382
      },